Código ,Nombre,Código ,Nombre,Código ,Nombre,,LATITUD,LONGITUD
05,ANTIOQUIA,05001,MEDELLÍN,05001000,MEDELLÍN,CM,6.2501294879999998,-75.578630939000007
05,ANTIOQUIA,05001,MEDELLÍN,05001001,PALMITAS,CP,6.343328692,-75.690038969
05,ANTIOQUIA,05001,MEDELLÍN,05001004,SANTA ELENA,CP,6.2097654699999998,-75.501847768000005
05,ANTIOQUIA,05001,MEDELLÍN,05001009,ALTAVISTA,CP,6.2204912649999997,-75.644558896000007
05,ANTIOQUIA,05001,MEDELLÍN,05001010,AGUAS FRÍAS,CP,6.2326650089999998,-75.635260574
05,ANTIOQUIA,05001,MEDELLÍN,05001013,SAN JOSÉ DEL MANZANILLO,CP,6.2059923829999999,-75.613253718999999
05,ANTIOQUIA,05001,MEDELLÍN,05001014,BARRO BLANCO,CP,6.235210575,-75.477541755999994
05,ANTIOQUIA,05001,MEDELLÍN,05001015,EL CERRO,CP,6.2019821830000001,-75.491055978999995
05,ANTIOQUIA,05001,MEDELLÍN,05001017,EL PATIO,CP,6.277840544,-75.651110457000001
05,ANTIOQUIA,05001,MEDELLÍN,05001018,EL PLACER,CP,6.2247879670000001,-75.492970986000003
05,ANTIOQUIA,05001,MEDELLÍN,05001019,EL PLAN,CP,6.2043479030000004,-75.518361440000007
05,ANTIOQUIA,05001,MEDELLÍN,05001022,LA ALDEA,CP,6.3424213109999998,-75.703422993000004
05,ANTIOQUIA,05001,MEDELLÍN,05001023,LA CUCHILLA,CP,6.2935134939999999,-75.653560103999993
05,ANTIOQUIA,05001,MEDELLÍN,05001025,LA PALMA,CP,6.2734060989999998,-75.648076504000002
05,ANTIOQUIA,05001,MEDELLÍN,05001027,LAS PLAYAS,CP,6.2844557339999998,-75.649303427999996
05,ANTIOQUIA,05001,MEDELLÍN,05001029,PIEDRA GORDA,CP,6.234886404,-75.498185078999995
05,ANTIOQUIA,05001,MEDELLÍN,05001031,POTRERITO,CP,6.1830798949999997,-75.667915769999993
05,ANTIOQUIA,05001,MEDELLÍN,05001032,TRAVESÍAS,CP,6.2870356469999997,-75.643112772999999
05,ANTIOQUIA,05001,MEDELLÍN,05001033,URQUITA,CP,,
05,ANTIOQUIA,05001,MEDELLÍN,05001035,BOQUERÓN,CP,6.3158675559999997,-75.657850764000003
05,ANTIOQUIA,05001,MEDELLÍN,05001039,EL LLANO 1,CP,6.2945843400000001,-75.649476433999993
05,ANTIOQUIA,05001,MEDELLÍN,05001040,EL LLANO,CP,6.1983120610000002,-75.503296007000003
05,ANTIOQUIA,05001,MEDELLÍN,05001048,LA VERDE,CP,6.1899576100000004,-75.639003699
05,ANTIOQUIA,05001,MEDELLÍN,05001052,MATASANO,CP,6.2588623730000004,-75.493577514999998
05,ANTIOQUIA,05001,MEDELLÍN,05001054,MATASANO 2,CP,6.2673108879999999,-75.505442602000002
05,ANTIOQUIA,05001,MEDELLÍN,05001055,MAZO,CP,6.2483199120000004,-75.498723369999993
05,ANTIOQUIA,05001,MEDELLÍN,05001057,MEDIA LUNA,CP,6.2402392339999997,-75.515957610000001
05,ANTIOQUIA,05001,MEDELLÍN,05001066,LAS CAMELIAS,CP,6.1967293620000001,-75.643377357000006
05,ANTIOQUIA,05002,ABEJORRAL,05002000,ABEJORRAL,CM,5.7893150010000003,-75.428738511999995
05,ANTIOQUIA,05002,ABEJORRAL,05002002,PANTANILLO,CP,5.7302560050000002,-75.490787443000002
05,ANTIOQUIA,05002,ABEJORRAL,05002004,NARANJAL - LAS FONDAS,CP,5.7633841600000002,-75.514083729000006
05,ANTIOQUIA,05002,ABEJORRAL,05002016,LAS CANOAS,CP,5.7821878360000003,-75.429070918999997
05,ANTIOQUIA,05004,ABRIAQUÍ,05004000,ABRIAQUÍ,CM,6.6318064530000003,-76.064703459
05,ANTIOQUIA,05004,ABRIAQUÍ,05004003,POTREROS SECTOR 1,CP,6.6744797179999997,-76.089392908999997
05,ANTIOQUIA,05021,ALEJANDRÍA,05021000,ALEJANDRÍA,CM,6.3760614450000004,-75.141346184
05,ANTIOQUIA,05030,AMAGÁ,05030000,AMAGÁ,CM,6.038816776,-75.702041105000006
05,ANTIOQUIA,05030,AMAGÁ,05030001,CAMILO C,CP,6.0265799339999999,-75.698671731000005
05,ANTIOQUIA,05030,AMAGÁ,05030003,LA CLARITA,CP,6.0688919170000002,-75.699651126000006
05,ANTIOQUIA,05030,AMAGÁ,05030004,LA FERREIRA,CP,6.0633869919999999,-75.709274312999995
05,ANTIOQUIA,05030,AMAGÁ,05030005,LA GUALÍ,CP,6.0573675629999997,-75.706870089999995
05,ANTIOQUIA,05030,AMAGÁ,05030006,PIEDECUESTA,CP,6.0499917620000003,-75.693460235000003
05,ANTIOQUIA,05030,AMAGÁ,05030011,MINAS,CP,6.0775727789999996,-75.701144783000004
05,ANTIOQUIA,05030,AMAGÁ,05030012,CAMILO C - ALTO DE LA VIRGEN,CP,6.027212982,-75.703335666000001
05,ANTIOQUIA,05030,AMAGÁ,05030013,PIEDECUESTA - MANI DE LAS CASAS,CP,6.0550061990000001,-75.693925428
05,ANTIOQUIA,05031,AMALFI,05031000,AMALFI,CM,6.9123047260000003,-75.082524277999994
05,ANTIOQUIA,05031,AMALFI,05031004,PORTACHUELO,CP,6.8016779290000002,-74.926449730000002
05,ANTIOQUIA,05034,ANDES,05034000,ANDES,CM,5.6571365619999998,-75.878806526999995
05,ANTIOQUIA,05034,ANDES,05034001,BUENOS AIRES,CP,5.6828546229999999,-75.835555690000007
05,ANTIOQUIA,05034,ANDES,05034003,SAN JOSÉ,CP,5.7360894470000003,-75.870355279999998
05,ANTIOQUIA,05034,ANDES,05034006,SANTA RITA,CP,5.6126186630000001,-75.917337649000004
05,ANTIOQUIA,05034,ANDES,05034007,TAPARTÓ,CP,5.7009290459999997,-75.965055058000004
05,ANTIOQUIA,05034,ANDES,05034012,SANTA INÉS,CP,5.563851219,-75.899903879999997
05,ANTIOQUIA,05034,ANDES,05034014,SAN BARTOLO,CP,5.6376151249999999,-75.853417816000004
05,ANTIOQUIA,05034,ANDES,05034015,LA CHAPARRALA - LA UNIÓN,CP,5.6528480549999998,-75.924471303999994
05,ANTIOQUIA,05036,ANGELÓPOLIS,05036000,ANGELÓPOLIS,CM,6.1097190640000001,-75.711389214999997
05,ANTIOQUIA,05036,ANGELÓPOLIS,05036001,LA ESTACIÓN,CP,6.084546907,-75.703416130999997
05,ANTIOQUIA,05036,ANGELÓPOLIS,05036006,SANTA RITA,CP,6.099416862,-75.709746272000004
05,ANTIOQUIA,05036,ANGELÓPOLIS,05036011,CIENAGUITA,CP,6.119026946,-75.748825581999995
05,ANTIOQUIA,05038,ANGOSTURA,05038000,ANGOSTURA,CM,6.8851745910000002,-75.335115965
05,ANTIOQUIA,05038,ANGOSTURA,05038008,LLANOS DE CUIBA,CP,6.8129749669999997,-75.487458974000006
05,ANTIOQUIA,05040,ANORÍ,05040000,ANORÍ,CM,7.0747028529999998,-75.148355123000002
05,ANTIOQUIA,05040,ANORÍ,05040002,LIBERIA,CP,7.3813556790000003,-74.999434364999999
05,ANTIOQUIA,05042,SANTA FÉ DE ANTIOQUIA,05042000,SANTA FÉ DE ANTIOQUIA,CM,6.5565666379999996,-75.827043032000006
05,ANTIOQUIA,05042,SANTA FÉ DE ANTIOQUIA,05042002,LAURELES,CP,6.4909189649999997,-75.947974729999999
05,ANTIOQUIA,05042,SANTA FÉ DE ANTIOQUIA,05042006,EL PESCADO,CP,6.4950844050000001,-75.909864131999996
05,ANTIOQUIA,05042,SANTA FÉ DE ANTIOQUIA,05042007,SABANAS,CP,6.4612603699999998,-75.912362388000005
05,ANTIOQUIA,05042,SANTA FÉ DE ANTIOQUIA,05042008,KILOMETRO 2,CP,6.5604210490000003,-75.846440892000004
05,ANTIOQUIA,05042,SANTA FÉ DE ANTIOQUIA,05042009,PASO REAL,CP,6.5151860839999998,-75.818215905000002
05,ANTIOQUIA,05044,ANZÁ,05044000,ANZÁ,CM,6.3026411720000004,-75.854442286999998
05,ANTIOQUIA,05044,ANZÁ,05044001,GUINTAR,CP,6.3020901650000001,-75.956132165
05,ANTIOQUIA,05044,ANZÁ,05044005,LA CEJITA,CP,6.3267008349999996,-75.911027093000001
05,ANTIOQUIA,05044,ANZÁ,05044006,LA HIGUINA,CP,6.3673181249999997,-75.850988623000006
05,ANTIOQUIA,05045,APARTADÓ,05045000,APARTADÓ,CM,7.883319706,-76.625310954
05,ANTIOQUIA,05045,APARTADÓ,05045001,SAN JOSÉ DE APARTADÓ,CP,7.8838939589999999,-76.562245609000001
05,ANTIOQUIA,05045,APARTADÓ,05045002,CHURIDÓ,CP,7.8645650170000003,-76.668837460999995
05,ANTIOQUIA,05045,APARTADÓ,05045003,ZUNGO CARRETERA,CP,7.8237429059999997,-76.649045013000006
05,ANTIOQUIA,05045,APARTADÓ,05045008,VIJAGUAL,CP,7.7901018689999999,-76.658399434000003
05,ANTIOQUIA,05045,APARTADÓ,05045009,EL REPOSO,CP,7.7994913410000004,-76.653891291999997
05,ANTIOQUIA,05045,APARTADÓ,05045010,BAJO DEL OSO,CP,7.9100590999999998,-76.625299987000005
05,ANTIOQUIA,05045,APARTADÓ,05045011,EL SALVADOR,CP,7.8783342469999997,-76.648605422000003
05,ANTIOQUIA,05045,APARTADÓ,05045014,PUERTO GIRÓN,CP,7.9051662690000004,-76.737182813999993
05,ANTIOQUIA,05045,APARTADÓ,05045015,LOMA VERDE,CP,7.8239863060000001,-76.643607247000006
05,ANTIOQUIA,05045,APARTADÓ,05045016,SAN PABLO,CP,7.8978652619999998,-76.714701972
05,ANTIOQUIA,05051,ARBOLETES,05051000,ARBOLETES,CM,8.8496370080000002,-76.426659470000004
05,ANTIOQUIA,05051,ARBOLETES,05051001,BUENOS AIRES,CP,8.6112457960000004,-76.282647518999994
05,ANTIOQUIA,05051,ARBOLETES,05051003,EL CARMELO,CP,8.6162057579999995,-76.381827568999995
05,ANTIOQUIA,05051,ARBOLETES,05051005,LAS NARANJITAS,CP,8.5292877350000005,-76.333452737000002
05,ANTIOQUIA,05051,ARBOLETES,05051008,EL YESO,CP,8.6162791649999999,-76.475696362999997
05,ANTIOQUIA,05051,ARBOLETES,05051009,LA TRINIDAD,CP,8.6254913139999996,-76.51026143
05,ANTIOQUIA,05051,ARBOLETES,05051010,LAS PLATAS (SANTAFÉ),CP,8.5815173260000002,-76.440511677999993
05,ANTIOQUIA,05051,ARBOLETES,05051011,LA CANDELARIA,CP,8.6576877579999998,-76.450310324
05,ANTIOQUIA,05051,ARBOLETES,05051014,EL GUADUAL,CP,8.4867776300000006,-76.384496909000006
05,ANTIOQUIA,05055,ARGELIA,05055000,ARGELIA,CM,5.730671879,-75.141741456999995
05,ANTIOQUIA,05059,ARMENIA,05059000,ARMENIA,CM,6.1558885710000002,-75.787072046000006
05,ANTIOQUIA,05059,ARMENIA,05059001,LA HERRADURA,CP,6.1466913669999999,-75.806586964999994
05,ANTIOQUIA,05059,ARMENIA,05059003,EL SOCORRO,CP,6.1461763500000002,-75.785122056000006
05,ANTIOQUIA,05059,ARMENIA,05059006,FILO SECO,CP,6.1426164290000003,-75.811939335999995
05,ANTIOQUIA,05059,ARMENIA,05059009,PALMICHAL,CP,6.1595319230000003,-75.806715378000007
05,ANTIOQUIA,05079,BARBOSA,05079000,BARBOSA,CM,6.4392000930000002,-75.331616892
05,ANTIOQUIA,05079,BARBOSA,05079001,HATILLO,CP,6.4101725930000004,-75.392108210999993
05,ANTIOQUIA,05079,BARBOSA,05079005,PLATANITO,CP,6.4051806579999999,-75.406863724999994
05,ANTIOQUIA,05079,BARBOSA,05079008,ISAZA,CP,6.4201677080000001,-75.362101430999999
05,ANTIOQUIA,05079,BARBOSA,05079014,POPALITO,CP,6.4728497870000004,-75.284274667999995
05,ANTIOQUIA,05079,BARBOSA,05079016,YARUMITO,CP,6.4574573490000002,-75.303733859999994
05,ANTIOQUIA,05079,BARBOSA,05079017,TABLAZO - HATILLO,CP,6.4188648769999999,-75.413305182000002
05,ANTIOQUIA,05079,BARBOSA,05079018,EL PARAISO,CP,6.4131421089999998,-75.414865829999997
05,ANTIOQUIA,05079,BARBOSA,05079019,EL SALADITO,CP,6.4073484040000004,-75.401844893000003
05,ANTIOQUIA,05079,BARBOSA,05079020,LOMITA 1,CP,6.4182500039999999,-75.406985941000002
05,ANTIOQUIA,05079,BARBOSA,05079021,LOMITA 2,CP,6.4157276510000001,-75.407773035999995
05,ANTIOQUIA,05079,BARBOSA,05079022,LA PRIMAVERA,CP,6.413749234,-75.406363931000001
05,ANTIOQUIA,05079,BARBOSA,05079023,TAMBORCITO,CP,6.4516229650000003,-75.311817249000001
05,ANTIOQUIA,05086,BELMIRA,05086000,BELMIRA,CM,6.606319386,-75.667779280999994
05,ANTIOQUIA,05086,BELMIRA,05086001,LABORES,CP,6.7097080570000003,-75.612503376000006
05,ANTIOQUIA,05086,BELMIRA,05086003,RÍO ARRIBA,CP,6.6133558109999999,-75.672022154000004
05,ANTIOQUIA,05088,BELLO,05088000,BELLO,CM,6.3339923330000003,-75.554810574000001
05,ANTIOQUIA,05088,BELLO,05088008,POTRERITO,CP,6.3312888550000004,-75.581125267999994
05,ANTIOQUIA,05088,BELLO,05088013,SAN FÉLIX,CP,6.3404339460000001,-75.608548210999999
05,ANTIOQUIA,05088,BELLO,05088018,EL PINAR,CP,6.3010930959999998,-75.530091906999999
05,ANTIOQUIA,05088,BELLO,05088020,EL ALBERGUE,CP,6.3070618639999996,-75.536463893000004
05,ANTIOQUIA,05088,BELLO,05088022,LA CHINA,CP,6.3981277739999998,-75.614713631000001
05,ANTIOQUIA,05088,BELLO,05088023,LA UNIÓN,CP,6.3824303540000002,-75.621225221000003
05,ANTIOQUIA,05091,BETANIA,05091000,BETANIA,CM,5.7447345480000003,-75.975655251000006
05,ANTIOQUIA,05091,BETANIA,05091003,SAN LUIS,CP,5.7535003680000001,-75.986423314999996
05,ANTIOQUIA,05093,BETULIA,05093000,BETULIA,CM,6.1152076639999997,-75.984452140000002
05,ANTIOQUIA,05093,BETULIA,05093001,ALTAMIRA,CP,6.2196204469999996,-75.949285114000006
05,ANTIOQUIA,05101,CIUDAD BOLÍVAR,05101000,CIUDAD BOLÍVAR,CM,5.8502732330000002,-76.021509205000001
05,ANTIOQUIA,05101,CIUDAD BOLÍVAR,05101002,SAN BERNARDO DE LOS FARALLONES,CP,5.7999837769999996,-76.029313939000005
05,ANTIOQUIA,05101,CIUDAD BOLÍVAR,05101006,ALFONSO LÓPEZ (SAN GREGORIO),CP,5.8956143409999999,-75.957060553999995
05,ANTIOQUIA,05101,CIUDAD BOLÍVAR,05101008,VILLA ALEGRÍA,CP,5.7833210800000003,-76.013669532999998
05,ANTIOQUIA,05101,CIUDAD BOLÍVAR,05101010,EL CABRERO - BOLÍVAR ARRIBA,CP,5.8659828269999998,-76.035652956000007
05,ANTIOQUIA,05107,BRICEÑO,05107000,BRICEÑO,CM,7.1148829469999999,-75.548130216000004
05,ANTIOQUIA,05107,BRICEÑO,05107001,BERLÍN (PUEBLO NUEVO),CP,7.1075897059999997,-75.625932273000004
05,ANTIOQUIA,05107,BRICEÑO,05107002,EL ROBLAL,CP,7.1376526370000004,-75.586774633000005
05,ANTIOQUIA,05107,BRICEÑO,05107003,LAS AURAS,CP,7.1933605780000001,-75.515009625999994
05,ANTIOQUIA,05107,BRICEÑO,05107004,TRAVESIAS,CP,7.1339715379999999,-75.571769853999996
05,ANTIOQUIA,05113,BURITICÁ,05113000,BURITICÁ,CM,6.719729847,-75.907495506000004
05,ANTIOQUIA,05113,BURITICÁ,05113001,EL NARANJO,CP,,
05,ANTIOQUIA,05113,BURITICÁ,05113002,GUARCO,CP,,
05,ANTIOQUIA,05113,BURITICÁ,05113003,TABACAL,CP,6.8059234789999996,-75.914509976999994
05,ANTIOQUIA,05113,BURITICÁ,05113004,LLANOS DE URARCO,CP,,
05,ANTIOQUIA,05113,BURITICÁ,05113005,LA ANGELINA,CP,,
05,ANTIOQUIA,05113,BURITICÁ,05113008,LA MARIELA,CP,6.7269399950000004,-75.906472597999993
05,ANTIOQUIA,05120,CÁCERES,05120000,CÁCERES,CM,7.5783154509999999,-75.352357487000006
05,ANTIOQUIA,05120,CÁCERES,05120002,EL JARDÍN (TAMANÁ),CP,7.7547735749999998,-75.253888305000004
05,ANTIOQUIA,05120,CÁCERES,05120003,GUARUMO,CP,7.8540177409999998,-75.208141299000005
05,ANTIOQUIA,05120,CÁCERES,05120004,MANIZALES,CP,7.8368375610000003,-75.414361436999997
05,ANTIOQUIA,05120,CÁCERES,05120006,PUERTO BÉLGICA,CP,7.6650823890000002,-75.284670278999997
05,ANTIOQUIA,05120,CÁCERES,05120010,PIAMONTE,CP,7.7828770450000002,-75.205584062
05,ANTIOQUIA,05120,CÁCERES,05120012,RÍO MAN,CP,7.9444500309999997,-75.208102561000004
05,ANTIOQUIA,05120,CÁCERES,05120013,LAS PAMPAS,CP,7.7155636190000001,-75.272529786000007
05,ANTIOQUIA,05120,CÁCERES,05120014,NICARAGUA,CP,7.7343093180000002,-75.384177308000005
05,ANTIOQUIA,05120,CÁCERES,05120015,PUERTO SANTO,CP,7.8012880210000004,-75.204576571999993
05,ANTIOQUIA,05125,CAICEDO,05125000,CAICEDO,CM,6.4056066070000002,-75.982930037000003
05,ANTIOQUIA,05129,CALDAS,05129000,CALDAS,CM,6.0912967470000003,-75.633618781999999
05,ANTIOQUIA,05129,CALDAS,05129001,EL CAÑO,CP,6.1077061930000003,-75.640528947999996
05,ANTIOQUIA,05129,CALDAS,05129002,LA RAYA,CP,6.1113019230000001,-75.640823076999993
05,ANTIOQUIA,05129,CALDAS,05129004,LA MIEL,CP,6.1025868499999998,-75.622236943999994
05,ANTIOQUIA,05129,CALDAS,05129005,LA CORRALITA,CP,6.0883345970000002,-75.620937010000006
05,ANTIOQUIA,05129,CALDAS,05129006,LA PRIMAVERA SANTA CRUZ,CP,6.0677736749999998,-75.637212238000004
05,ANTIOQUIA,05129,CALDAS,05129007,EL RAIZAL,CP,6.0876987319999998,-75.645152831000004
05,ANTIOQUIA,05129,CALDAS,05129008,LA CLARA,CP,6.0480230940000004,-75.619806564000001
05,ANTIOQUIA,05129,CALDAS,05129009,LA QUIEBRA,CP,6.0603530330000002,-75.648240130999994
05,ANTIOQUIA,05129,CALDAS,05129010,LA SALADA PARTE BAJA,CP,6.0499494309999999,-75.624601780999996
05,ANTIOQUIA,05129,CALDAS,05129011,LA TOLVA,CP,6.0594610229999999,-75.637921880999997
05,ANTIOQUIA,05129,CALDAS,05129012,LA VALERIA,CP,6.0933816529999998,-75.647988436000006
05,ANTIOQUIA,05129,CALDAS,05129013,LA AGUACATALA,CP,6.1034937280000001,-75.643154143000004
05,ANTIOQUIA,05129,CALDAS,05129015,LA CHUSCALA,CP,6.0828838899999997,-75.639578933999999
05,ANTIOQUIA,05129,CALDAS,05129016,SALINAS,CP,6.0558346219999999,-75.660185304999999
05,ANTIOQUIA,05134,CAMPAMENTO,05134000,CAMPAMENTO,CM,6.9797756580000003,-75.298084623999998
05,ANTIOQUIA,05134,CAMPAMENTO,05134001,LA CHIQUITA,CP,6.9715799570000003,-75.263683
05,ANTIOQUIA,05134,CAMPAMENTO,05134002,LA SOLITA,CP,7.0585254910000002,-75.277261679999995
05,ANTIOQUIA,05134,CAMPAMENTO,05134003,LLANADAS,CP,7.039036318,-75.272434537999999
05,ANTIOQUIA,05138,CAÑASGORDAS,05138000,CAÑASGORDAS,CM,6.7594776850000002,-76.032209942999998
05,ANTIOQUIA,05138,CAÑASGORDAS,05138001,BUENOS AIRES - PARTE ALTA,CP,6.7261955039999997,-76.009653181000004
05,ANTIOQUIA,05138,CAÑASGORDAS,05138002,CESTILLAL,CP,6.8531622710000004,-76.073631589000001
05,ANTIOQUIA,05138,CAÑASGORDAS,05138003,JUNTAS DE URAMITA,CP,6.9213049599999996,-76.031369287000004
05,ANTIOQUIA,05138,CAÑASGORDAS,05138005,SAN PASCUAL,CP,6.8466491869999997,-76.047420423999995
05,ANTIOQUIA,05138,CAÑASGORDAS,05138009,VILLA VICTORIA,CP,6.9261340120000003,-76.028145097999996
05,ANTIOQUIA,05142,CARACOLÍ,05142000,CARACOLÍ,CM,6.4098292729999997,-74.757420723999999
05,ANTIOQUIA,05145,CARAMANTA,05145000,CARAMANTA,CM,5.5485304040000001,-75.643868452999996
05,ANTIOQUIA,05145,CARAMANTA,05145001,ALEGRÍAS,CP,5.5463198230000001,-75.607311714999994
05,ANTIOQUIA,05145,CARAMANTA,05145002,SUCRE,CP,5.5797880199999996,-75.606616157000005
05,ANTIOQUIA,05147,CAREPA,05147000,CAREPA,CM,7.7551599859999998,-76.652997003999999
05,ANTIOQUIA,05147,CAREPA,05147003,PIEDRAS BLANCAS,CP,7.7457797340000001,-76.556228532999995
05,ANTIOQUIA,05147,CAREPA,05147004,ZUNGO EMBARCADERO - PUEBLO NUEVO,CP,7.847151717,-76.739217314000001
05,ANTIOQUIA,05147,CAREPA,05147005,ZUNGO EMBARCADERO - 11 DE NOVIEMBRE,CP,7.8468139810000004,-76.734493283000006
05,ANTIOQUIA,05147,CAREPA,05147006,CASA VERDE,CP,7.7884211460000001,-76.654282486
05,ANTIOQUIA,05147,CAREPA,05147007,EL ENCANTO,CP,7.7489896329999999,-76.710917975000001
05,ANTIOQUIA,05147,CAREPA,05147008,ZUNGO EMBARCADERO - 28 DE OCTUBRE,CP,7.850592915,-76.742764471000001
05,ANTIOQUIA,05147,CAREPA,05147009,BELENCITO,CP,7.8012482749999998,-76.508207141
05,ANTIOQUIA,05147,CAREPA,05147010,BOSQUES DE LOS ALMENDROS,CP,7.7893417380000001,-76.649546365000006
05,ANTIOQUIA,05147,CAREPA,05147011,CAREPITA CANALUNO,CP,7.8312454860000003,-76.754285281999998
05,ANTIOQUIA,05147,CAREPA,05147012,SACRAMENTO LA LUCHA,CP,7.7895983879999999,-76.661045281
05,ANTIOQUIA,05147,CAREPA,05147013,LOS NARANJALES,CP,7.8194636720000004,-76.713210399999994
05,ANTIOQUIA,05147,CAREPA,05147014,VIJAGUAL,CP,7.8140591859999997,-76.704530329999997
05,ANTIOQUIA,05148,EL CARMEN DE VIBORAL,05148000,EL CARMEN DE VIBORAL,CM,6.0845514439999997,-75.335362458000006
05,ANTIOQUIA,05148,EL CARMEN DE VIBORAL,05148003,AGUAS CLARAS,CP,6.0730164650000003,-75.377162150000004
05,ANTIOQUIA,05148,EL CARMEN DE VIBORAL,05148005,LA CHAPA,CP,6.052812308,-75.316889811999999
05,ANTIOQUIA,05148,EL CARMEN DE VIBORAL,05148006,CAMPO ALEGRE,CP,6.060720163,-75.325395939000003
05,ANTIOQUIA,05148,EL CARMEN DE VIBORAL,05148008,LA AURORA - LAS BRISAS,CP,6.0843757370000002,-75.326894108999994
05,ANTIOQUIA,05150,CAROLINA,05150000,CAROLINA DEL PRÍNCIPE,CM,6.7259950719999999,-75.283192006999997
05,ANTIOQUIA,05154,CAUCASIA,05154000,CAUCASIA,CM,7.9773623330000003,-75.198290326999995
05,ANTIOQUIA,05154,CAUCASIA,05154003,CUTURÚ,CP,7.7269923949999999,-74.786966277000005
05,ANTIOQUIA,05154,CAUCASIA,05154006,MARGENTO,CP,8.0358956890000002,-74.953543119000003
05,ANTIOQUIA,05154,CAUCASIA,05154008,PALANCA,CP,8.0097229730000006,-75.022198949
05,ANTIOQUIA,05154,CAUCASIA,05154009,PALOMAR,CP,8.0027576689999993,-74.976344936000004
05,ANTIOQUIA,05154,CAUCASIA,05154012,SANTA ROSITA,CP,7.9216407919999998,-75.325244046999998
05,ANTIOQUIA,05154,CAUCASIA,05154020,PUERTO TRIANA,CP,7.6837653799999996,-74.892952270999999
05,ANTIOQUIA,05154,CAUCASIA,05154022,LA ILUSIÓN,CP,8.0213507899999996,-75.091390868999994
05,ANTIOQUIA,05154,CAUCASIA,05154023,CACERÍ,CP,7.8023635069999999,-74.928558460999994
05,ANTIOQUIA,05154,CAUCASIA,05154024,EL PANDO,CP,7.7934369930000003,-75.069703161000007
05,ANTIOQUIA,05154,CAUCASIA,05154026,EL CHINO,CP,8.0097973049999993,-75.094244232999998
05,ANTIOQUIA,05154,CAUCASIA,05154027,LA ESMERALDA,CP,8.0117894570000008,-75.138112097999993
05,ANTIOQUIA,05154,CAUCASIA,05154031,VILLA DEL SOCORRO,CP,8.0480932949999993,-75.007310220999997
05,ANTIOQUIA,05154,CAUCASIA,05154032,CASERÍO CONJUNTO CAÑA FISTULA,CP,7.9498270199999999,-75.164822108999999
05,ANTIOQUIA,05154,CAUCASIA,05154033,PUEBLO NUEVO,CP,8.0407214539999998,-74.960167780000006
05,ANTIOQUIA,05172,CHIGORODÓ,05172000,CHIGORODÓ,CM,7.6662910259999997,-76.681256164999994
05,ANTIOQUIA,05172,CHIGORODÓ,05172003,BARRANQUILLITA,CP,7.5708499219999998,-76.696849714999999
05,ANTIOQUIA,05172,CHIGORODÓ,05172007,GUAPÁ CARRETERAS,CP,7.556446964,-76.613421391000003
05,ANTIOQUIA,05172,CHIGORODÓ,05172013,JURADÓ,CP,7.5004429000000004,-76.580046631000002
05,ANTIOQUIA,05172,CHIGORODÓ,05172014,CAMPITAS,CP,7.6445934800000002,-76.694898430999999
05,ANTIOQUIA,05172,CHIGORODÓ,05172015,CHAMPITA SECTOR LA GRANJA,CP,7.6492363059999997,-76.684713990999995
05,ANTIOQUIA,05190,CISNEROS,05190000,CISNEROS,CM,6.5378294910000001,-75.087046732999994
05,ANTIOQUIA,05197,COCORNÁ,05197000,COCORNÁ,CM,6.0583063350000002,-75.185481010999993
05,ANTIOQUIA,05197,COCORNÁ,05197005,LA PIÑUELA,CP,6.0111558,-75.141320278999999
05,ANTIOQUIA,05197,COCORNÁ,05197013,EL MOLINO,CP,6.0578153830000003,-75.155222988000006
05,ANTIOQUIA,05206,CONCEPCIÓN,05206000,CONCEPCIÓN,CM,6.3943481130000004,-75.257587199
05,ANTIOQUIA,05209,CONCORDIA,05209000,CONCORDIA,CM,6.0465629600000002,-75.907607335999998
05,ANTIOQUIA,05209,CONCORDIA,05209001,EL SOCORRO,CP,6.1213316730000003,-75.900895817999995
05,ANTIOQUIA,05209,CONCORDIA,05209006,EL GOLPE,CP,6.0068078649999999,-75.841064642999996
05,ANTIOQUIA,05209,CONCORDIA,05209007,SALAZAR,CP,6.0384799899999999,-75.909555284000007
05,ANTIOQUIA,05212,COPACABANA,05212000,COPACABANA,CM,6.3486518260000002,-75.509314114000006
05,ANTIOQUIA,05212,COPACABANA,05212005,EL SALADO,CP,6.3472544930000003,-75.490875416999998
05,ANTIOQUIA,05212,COPACABANA,05212008,CABUYAL,CP,6.3279706930000001,-75.499897044999997
05,ANTIOQUIA,05212,COPACABANA,05212017,EL LLANO,CP,6.3307866370000001,-75.516440093
05,ANTIOQUIA,05234,DABEIBA,05234000,DABEIBA,CM,7.0003219379999999,-76.262976647000002
05,ANTIOQUIA,05234,DABEIBA,05234004,SAN JOSÉ DE URAMA,CP,7.0174901209999998,-76.144688795999997
05,ANTIOQUIA,05234,DABEIBA,05234008,ARMENIA - CAMPARRUSIA,CP,7.0005315000000001,-76.037112398999994
05,ANTIOQUIA,05234,DABEIBA,05234010,LAS CRUCES DE URAMA,CP,7.0185089899999999,-76.199549720999997
05,ANTIOQUIA,05234,DABEIBA,05234012,CHIMIADÓ LLANO GRANDE,CP,7.0750038369999997,-76.244793376999993
05,ANTIOQUIA,05234,DABEIBA,05234014,EL BOTÓN,CP,6.9245497340000002,-76.255511561999995
05,ANTIOQUIA,05234,DABEIBA,05234017,BETANIA PUENTE NUEVO,CP,6.9890152170000004,-76.046497494999997
05,ANTIOQUIA,05234,DABEIBA,05234018,CARA COLÓN,CP,7.0283988930000003,-76.270580327000005
05,ANTIOQUIA,05234,DABEIBA,05234019,LA BALSITA,CP,7.05442473,-76.125017146999994
05,ANTIOQUIA,05237,DONMATÍAS,05237000,DONMATÍAS,CM,6.4856075659999997,-75.392646268999997
05,ANTIOQUIA,05237,DONMATÍAS,05237001,BELLAVISTA,CP,6.5401181340000001,-75.284998071000004
05,ANTIOQUIA,05237,DONMATÍAS,05237003,ARENALES,CP,6.5439241770000001,-75.251923403000006
05,ANTIOQUIA,05237,DONMATÍAS,05237004,MONTERA,CP,6.5070515069999999,-75.285974112000005
05,ANTIOQUIA,05237,DONMATÍAS,05237005,PRADERA,CP,6.5121163930000003,-75.265351999999993
05,ANTIOQUIA,05240,EBÉJICO,05240000,EBÉJICO,CM,6.3261281570000003,-75.764164919999999
05,ANTIOQUIA,05240,EBÉJICO,05240001,BRASIL,CP,6.3397701670000002,-75.732455242
05,ANTIOQUIA,05240,EBÉJICO,05240003,SEVILLA,CP,6.2942786960000001,-75.784617189000002
05,ANTIOQUIA,05240,EBÉJICO,05240008,EL ZARZAL,CP,6.3068764789999996,-75.754771653000006
05,ANTIOQUIA,05240,EBÉJICO,05240011,LA CLARA,CP,6.2785120570000004,-75.760956492000005
05,ANTIOQUIA,05240,EBÉJICO,05240012,FATIMA,CP,6.3183420789999998,-75.769550097999996
05,ANTIOQUIA,05250,EL BAGRE,05250000,EL BAGRE,CM,7.5975217940000004,-74.799097289000002
05,ANTIOQUIA,05250,EL BAGRE,05250002,PUERTO CLAVER,CP,7.7115469729999999,-74.752495620999994
05,ANTIOQUIA,05250,EL BAGRE,05250004,PUERTO LÓPEZ,CP,7.4387123839999996,-74.689394157999999
05,ANTIOQUIA,05250,EL BAGRE,05250005,EL REAL,CP,7.6245998410000002,-74.783074459999995
05,ANTIOQUIA,05250,EL BAGRE,05250006,LA CORONA,CP,7.6312083770000001,-74.671389594000004
05,ANTIOQUIA,05250,EL BAGRE,05250007,LAS NEGRITAS,CP,7.4641582059999996,-74.688539973999994
05,ANTIOQUIA,05250,EL BAGRE,05250008,LAS SARDINAS EL PUENTE,CP,7.562350983,-74.802805771999999
05,ANTIOQUIA,05250,EL BAGRE,05250009,SANTA BÁRBARA,CP,7.8243350359999999,-74.709041971999994
05,ANTIOQUIA,05250,EL BAGRE,05250010,MUQUI,CP,7.7923943390000003,-74.699866106000002
05,ANTIOQUIA,05250,EL BAGRE,05250011,BORRACHERA,CP,7.545023381,-74.75660019
05,ANTIOQUIA,05250,EL BAGRE,05250012,CAÑO CLARO,CP,7.4745026430000001,-74.695569014
05,ANTIOQUIA,05250,EL BAGRE,05250013,LOS ALMENDROS,CP,7.4649719000000001,-74.682101181999997
05,ANTIOQUIA,05264,ENTRERRÍOS,05264000,ENTRERRÍOS,CM,6.5662730360000001,-75.517684794000004
05,ANTIOQUIA,05266,ENVIGADO,05266000,ENVIGADO,CM,6.166949571,-75.582958551999994
05,ANTIOQUIA,05266,ENVIGADO,05266001,LAS PALMAS,CP,6.1525424549999999,-75.530512618000003
05,ANTIOQUIA,05266,ENVIGADO,05266005,EL CRISTO,CP,6.144812505,-75.578514846999994
05,ANTIOQUIA,05266,ENVIGADO,05266006,EL CHINGUI  2,CP,6.1505086220000003,-75.574676691999997
05,ANTIOQUIA,05266,ENVIGADO,05266007,LA ÚLTIMA COPA,CP,6.1418724740000004,-75.573735436999996
05,ANTIOQUIA,05266,ENVIGADO,05266008,PARCELACIÓN LA ACUARELA,CP,6.1665442840000004,-75.526215457000006
05,ANTIOQUIA,05266,ENVIGADO,05266009,PARCELACIÓN ALAMOS DEL ESCOBERO,CP,6.1516173900000002,-75.569204365999994
05,ANTIOQUIA,05266,ENVIGADO,05266010,PARCELACIÓN ALDEA DE PALMA VERDE,CP,6.1484268860000002,-75.535766734000006
05,ANTIOQUIA,05266,ENVIGADO,05266011,PARCELACIÓN CONDOMINIO CAMPESTRE SERRANÍA,CP,6.1613515579999998,-75.522384150999997
05,ANTIOQUIA,05266,ENVIGADO,05266012,PARCELACIÓN CASAS BELLO MONTE,CP,6.1534328299999999,-75.520016726999998
05,ANTIOQUIA,05266,ENVIGADO,05266013,PARCELACIÓN FIORE CASAS DE CAMPO,CP,6.1553729989999999,-75.565861874999996
05,ANTIOQUIA,05266,ENVIGADO,05266014,PARCELACIÓN CONJUNTO RESIDENCIAL BELLA TIERRA,CP,6.1628984520000003,-75.5191971
05,ANTIOQUIA,05266,ENVIGADO,05266015,PARCELACIÓN ENCENILLOS,CP,6.1767572279999996,-75.528182911000002
05,ANTIOQUIA,05266,ENVIGADO,05266016,PARCELACIÓN ESCOBERO,CP,6.1448831339999996,-75.559188067999997
05,ANTIOQUIA,05266,ENVIGADO,05266017,PARCELACIÓN HACIENDA ARRAYANES,CP,6.1660162319999996,-75.537527982
05,ANTIOQUIA,05266,ENVIGADO,05266018,PARCELACIÓN LAS PALMITAS,CP,6.1569904040000001,-75.512490072000006
05,ANTIOQUIA,05266,ENVIGADO,05266019,PARCELACIÓN LEMONT,CP,6.1521151679999999,-75.541368965999993
05,ANTIOQUIA,05266,ENVIGADO,05266020,PARCELACIÓN PRADO LARGO,CP,6.1581210710000001,-75.527352845999999
05,ANTIOQUIA,05266,ENVIGADO,05266021,PARCELACIÓN SAN SEBASTIÁN,CP,6.1342900340000002,-75.533248118000003
05,ANTIOQUIA,05266,ENVIGADO,05266023,PARCELACIÓN URBANIZACIÓN PAPIROS,CP,6.1477554159999999,-75.523169225000004
05,ANTIOQUIA,05266,ENVIGADO,05266024,PARCELACIÓN VERANDA,CP,6.1424109140000001,-75.529239789000002
05,ANTIOQUIA,05266,ENVIGADO,05266025,PARCELACIÓN VILLAS DE LA CANDELARIA,CP,6.1556184079999996,-75.550844643999994
05,ANTIOQUIA,05282,FREDONIA,05282000,FREDONIA,CM,5.9243626049999998,-75.670452647000005
05,ANTIOQUIA,05282,FREDONIA,05282002,LOS PALOMOS,CP,5.9675437850000002,-75.677122136999998
05,ANTIOQUIA,05282,FREDONIA,05282003,MINAS,CP,5.9257398419999996,-75.739850950000005
05,ANTIOQUIA,05282,FREDONIA,05282004,PUENTE IGLESIAS,CP,5.8307512600000004,-75.707465045000006
05,ANTIOQUIA,05282,FREDONIA,05282005,MARSELLA,CP,5.8629084530000002,-75.687855630000001
05,ANTIOQUIA,05282,FREDONIA,05282008,EL ZANCUDO,CP,5.8908921120000004,-75.656613812000003
05,ANTIOQUIA,05284,FRONTINO,05284000,FRONTINO,CM,6.7760664310000003,-76.130764567
05,ANTIOQUIA,05284,FRONTINO,05284001,CARAUTA,CP,6.6701315919999997,-76.304551336000003
05,ANTIOQUIA,05284,FRONTINO,05284004,MURRI - LA BLANQUITA,CP,6.743122262,-76.367705504
05,ANTIOQUIA,05284,FRONTINO,05284005,MUSINGA - TABLADITO,CP,6.7729121929999998,-76.204321288000003
05,ANTIOQUIA,05284,FRONTINO,05284006,NUTIBARA,CP,6.8049300190000004,-76.247001244000003
05,ANTIOQUIA,05284,FRONTINO,05284007,PONTÓN,CP,6.7416384210000002,-76.093412710999999
05,ANTIOQUIA,05284,FRONTINO,05284010,SAN LAZARO,CP,6.7382230769999998,-76.150102044999997
05,ANTIOQUIA,05284,FRONTINO,05284012,JENGAMECODA,CP,,
05,ANTIOQUIA,05306,GIRALDO,05306000,GIRALDO,CM,6.6808080160000003,-75.952157564999993
05,ANTIOQUIA,05306,GIRALDO,05306001,MANGLAR,CP,6.6943513350000003,-75.948946280000001
05,ANTIOQUIA,05308,GIRARDOTA,05308000,GIRARDOTA,CM,6.3794866749999999,-75.444234782999999
05,ANTIOQUIA,05308,GIRARDOTA,05308002,SAN ANDRÉS,CP,6.3987292179999997,-75.440016948999997
05,ANTIOQUIA,05308,GIRARDOTA,05308004,LA PALMA,CP,6.4072696650000003,-75.428150892999994
05,ANTIOQUIA,05308,GIRARDOTA,05308009,CABILDO,CP,6.3904156939999996,-75.427035793000002
05,ANTIOQUIA,05308,GIRARDOTA,05308010,LAS CUCHILLAS,CP,6.368633408,-75.455797296
05,ANTIOQUIA,05308,GIRARDOTA,05308011,JAMUNDÍ - ESCUELAS,CP,6.366293787,-75.436547853999997
05,ANTIOQUIA,05308,GIRARDOTA,05308012,JUAN COJO,CP,6.3600186880000003,-75.455652979999996
05,ANTIOQUIA,05308,GIRARDOTA,05308013,LA CALLE,CP,6.4032814819999997,-75.433853651999996
05,ANTIOQUIA,05308,GIRARDOTA,05308014,SAN ESTEBAN,CP,6.3857219750000001,-75.468130832
05,ANTIOQUIA,05308,GIRARDOTA,05308015,EL PARAISO,CP,6.3881051390000003,-75.463006583999999
05,ANTIOQUIA,05308,GIRARDOTA,05308016,JAMUNDÍ - RIELES,CP,6.3689976530000001,-75.434840484999995
05,ANTIOQUIA,05308,GIRARDOTA,05308017,LOMA DE LOS OCHOA,CP,6.3908177960000003,-75.455861886999998
05,ANTIOQUIA,05310,GÓMEZ PLATA,05310000,GÓMEZ PLATA,CM,6.6832688659999997,-75.220018030999995
05,ANTIOQUIA,05310,GÓMEZ PLATA,05310001,EL SALTO,CP,6.7823836530000001,-75.239681137999995
05,ANTIOQUIA,05310,GÓMEZ PLATA,05310002,SAN MATÍAS,CP,6.769912626,-75.192819602
05,ANTIOQUIA,05310,GÓMEZ PLATA,05310004,VEGA DE BOTERO,CP,6.7306546249999997,-75.137885326000003
05,ANTIOQUIA,05313,GRANADA,05313000,GRANADA,CM,6.1428966660000004,-75.184445083
05,ANTIOQUIA,05313,GRANADA,05313001,SANTA ANA,CP,6.0733434080000004,-75.101084783999994
05,ANTIOQUIA,05313,GRANADA,05313004,LOS MEDIOS,CP,6.1384157239999997,-75.085798396000001
05,ANTIOQUIA,05315,GUADALUPE,05315000,GUADALUPE,CM,6.8142634559999999,-75.240018590000005
05,ANTIOQUIA,05315,GUADALUPE,05315002,GUANTEROS,CP,6.8438749760000004,-75.217076390000003
05,ANTIOQUIA,05315,GUADALUPE,05315007,GUADALUPE IV,CP,6.827681653,-75.203234387999998
05,ANTIOQUIA,05315,GUADALUPE,05315008,BARRIO NUEVO,CP,6.8341343720000003,-75.199588285999994
05,ANTIOQUIA,05315,GUADALUPE,05315009,EL MACHETE,CP,6.8096858720000002,-75.213617970000001
05,ANTIOQUIA,05318,GUARNE,05318000,GUARNE,CM,6.2778704850000002,-75.441611506000001
05,ANTIOQUIA,05318,GUARNE,05318006,CHAPARRAL,CP,6.2304179910000004,-75.397882342000003
05,ANTIOQUIA,05318,GUARNE,05318007,SAN IGNACIO,CP,6.2095027119999999,-75.482378018999995
05,ANTIOQUIA,05321,GUATAPÉ,05321000,GUATAPÉ,CM,6.2325927080000003,-75.162292589000003
05,ANTIOQUIA,05321,GUATAPÉ,05321001,EL ROBLE,CP,6.2386612660000003,-75.152963057999997
05,ANTIOQUIA,05347,HELICONIA,05347000,HELICONIA,CM,6.2067574590000003,-75.734322383999995
05,ANTIOQUIA,05347,HELICONIA,05347001,ALTO DEL CORRAL,CP,6.2057124469999998,-75.774549458999999
05,ANTIOQUIA,05347,HELICONIA,05347002,PUEBLITO,CP,6.1671847150000003,-75.721209676000001
05,ANTIOQUIA,05347,HELICONIA,05347003,LLANOS DE SAN JOSÉ,CP,6.2510847519999997,-75.750291841000006
05,ANTIOQUIA,05347,HELICONIA,05347009,GUAMAL,CP,6.1614807149999997,-75.739853385999993
05,ANTIOQUIA,05353,HISPANIA,05353000,HISPANIA,CM,5.7994607990000002,-75.906587348000002
05,ANTIOQUIA,05360,ITAGÜÍ,05360000,ITAGÜÍ,CM,6.1695976290000001,-75.614358714000005
05,ANTIOQUIA,05360,ITAGÜÍ,05360001,LOS GÓMEZ,CP,6.1911001600000004,-75.610938082000004
05,ANTIOQUIA,05360,ITAGÜÍ,05360003,EL AJIZAL,CP,6.1940840650000002,-75.606979347999996
05,ANTIOQUIA,05360,ITAGÜÍ,05360006,EL PEDREGAL,CP,6.1893464829999996,-75.617330308999996
05,ANTIOQUIA,05360,ITAGÜÍ,05360012,EL PORVENIR,CP,6.194911887,-75.600089789999998
05,ANTIOQUIA,05360,ITAGÜÍ,05360013,EL PROGRESO,CP,6.1859307660000002,-75.614405939999997
05,ANTIOQUIA,05360,ITAGÜÍ,05360014,LA MARÍA,CP,6.1783156650000004,-75.627127036000005
05,ANTIOQUIA,05361,ITUANGO,05361000,ITUANGO,CM,7.1716290300000001,-75.764673165999994
05,ANTIOQUIA,05361,ITUANGO,05361002,EL ARO - BUILÓPOLIS,CP,7.2491295349999998,-75.519258136999994
05,ANTIOQUIA,05361,ITUANGO,05361003,LA GRANJA,CP,7.286721247,-75.722143299999999
05,ANTIOQUIA,05361,ITUANGO,05361004,PASCUITA,CP,7.191298475,-75.653745807000007
05,ANTIOQUIA,05361,ITUANGO,05361005,SANTA ANA,CP,7.1632024310000002,-75.868078526999994
05,ANTIOQUIA,05361,ITUANGO,05361006,SANTA LUCÍA,CP,7.3140906069999998,-75.824776317000001
05,ANTIOQUIA,05361,ITUANGO,05361007,SANTA RITA,CP,7.3197703839999999,-75.615738648000004
05,ANTIOQUIA,05361,ITUANGO,05361018,PÍO X,CP,7.1831112299999997,-75.764838362000006
05,ANTIOQUIA,05364,JARDÍN,05364000,JARDÍN,CM,5.5975417399999996,-75.818980921000005
05,ANTIOQUIA,05364,JARDÍN,05364001,CRISTIANÍA,CP,5.6281478280000004,-75.870724015999997
05,ANTIOQUIA,05364,JARDÍN,05364002,LA ARBOLEDA - LAS MACANAS,CP,5.5868646210000001,-75.856799518000003
05,ANTIOQUIA,05364,JARDÍN,05364006,QUEBRADA BONITA,CP,5.589980572,-75.803628207000003
05,ANTIOQUIA,05368,JERICÓ,05368000,JERICÓ,CM,5.789747931,-75.785498555000004
05,ANTIOQUIA,05368,JERICÓ,05368005,GUACAMAYAL,CP,5.7975065499999996,-75.780012933999998
05,ANTIOQUIA,05368,JERICÓ,05368007,LOS PATIOS,CP,5.789946971,-75.772060535999998
05,ANTIOQUIA,05376,LA CEJA,05376000,LA CEJA,CM,6.0280521,-75.429428596999998
05,ANTIOQUIA,05376,LA CEJA,05376002,EL TAMBO,CP,6.0145884440000001,-75.436327476000002
05,ANTIOQUIA,05376,LA CEJA,05376003,SAN JOSÉ,CP,5.965685208,-75.488676171999998
05,ANTIOQUIA,05376,LA CEJA,05376005,SAN NICOLÁS,CP,6.047529881,-75.427775421000007
05,ANTIOQUIA,05376,LA CEJA,05376006,SAN JUDAS,CP,6.0547915379999999,-75.388745268999998
05,ANTIOQUIA,05376,LA CEJA,05376008,TOLEDO,CP,6.0544730580000001,-75.384946948999996
05,ANTIOQUIA,05380,LA ESTRELLA,05380000,LA ESTRELLA,CM,6.1233546109999999,-75.631868968000006
05,ANTIOQUIA,05380,LA ESTRELLA,05380007,LA TABLACITA,CP,6.1268240189999998,-75.628121817999997
05,ANTIOQUIA,05380,LA ESTRELLA,05380008,SAGRADA FAMILIA,CP,6.116699691,-75.627108233000001
05,ANTIOQUIA,05380,LA ESTRELLA,05380009,SAN JOSÉ - MELEGUINDO,CP,6.1652885120000001,-75.656419970000002
05,ANTIOQUIA,05380,LA ESTRELLA,05380010,LA RAYA,CP,6.1123818390000002,-75.640750345000001
05,ANTIOQUIA,05380,LA ESTRELLA,05380011,SAN ISIDRO,CP,6.1199466740000004,-75.624900073000006
05,ANTIOQUIA,05380,LA ESTRELLA,05380012,TARAPACÁ,CP,6.1644665840000004,-75.650225828999993
05,ANTIOQUIA,05380,LA ESTRELLA,05380013,SAN MIGUEL,CP,6.1206969500000001,-75.641719859000005
05,ANTIOQUIA,05380,LA ESTRELLA,05380019,LA BERMEJALA,CP,6.1340547580000004,-75.643182354000004
05,ANTIOQUIA,05380,LA ESTRELLA,05380021,PEÑAS BLANCAS,CP,6.1280753959999998,-75.641822968
05,ANTIOQUIA,05390,LA PINTADA,05390000,LA PINTADA,CM,5.7438083190000002,-75.607810228999995
05,ANTIOQUIA,05390,LA PINTADA,05390001,LA BOCANA,CP,5.7241467239999997,-75.599843582000005
05,ANTIOQUIA,05400,LA UNIÓN,05400000,LA UNIÓN,CM,5.9738449060000001,-75.360874417999995
05,ANTIOQUIA,05400,LA UNIÓN,05400001,MESOPOTAMIA,CP,5.8840758810000002,-75.315822088999994
05,ANTIOQUIA,05400,LA UNIÓN,05400004,LA CONCHA,CP,5.9812565790000001,-75.368520105000002
05,ANTIOQUIA,05411,LIBORINA,05411000,LIBORINA,CM,6.6773161080000003,-75.812837940999998
05,ANTIOQUIA,05411,LIBORINA,05411001,EL CARMEN - LA VENTA,CP,6.6822375510000001,-75.750103933000005
05,ANTIOQUIA,05411,LIBORINA,05411002,LA HONDA,CP,6.7799195350000003,-75.827536546999994
05,ANTIOQUIA,05411,LIBORINA,05411003,LA MERCED (PLAYÓN),CP,6.7650668830000003,-75.748766072999999
05,ANTIOQUIA,05411,LIBORINA,05411004,SAN DIEGO (PLACITA),CP,6.7196770179999996,-75.775712224000003
05,ANTIOQUIA,05411,LIBORINA,05411005,CURITÍ,CP,6.6735098060000002,-75.798863057000005
05,ANTIOQUIA,05411,LIBORINA,05411007,CRISTÓBAL,CP,6.7331726459999999,-75.813530557999997
05,ANTIOQUIA,05411,LIBORINA,05411012,PORVENIR,CP,6.7529216349999999,-75.811542957
05,ANTIOQUIA,05411,LIBORINA,05411013,PROVINCIAL,CP,6.7247372619999997,-75.768252681000007
05,ANTIOQUIA,05425,MACEO,05425000,MACEO,CM,6.5521159400000002,-74.787160068999995
05,ANTIOQUIA,05425,MACEO,05425001,LA SUSANA,CP,6.6005520459999998,-74.657617187
05,ANTIOQUIA,05425,MACEO,05425003,LA FLORESTA,CP,6.4771773240000003,-74.700388756999999
05,ANTIOQUIA,05425,MACEO,05425005,SAN JOSÉ DEL NUS (JOSÉ DE NUESTRA SEÑORA),CP,6.4962081840000003,-74.826135433999994
05,ANTIOQUIA,05440,MARINILLA,05440000,MARINILLA,CM,6.1721414760000002,-75.338897427000006
05,ANTIOQUIA,05467,MONTEBELLO,05467000,MONTEBELLO,CM,5.9463131630000001,-75.523455312999999
05,ANTIOQUIA,05467,MONTEBELLO,05467001,SABALETAS,CP,5.917678392,-75.546261615999995
05,ANTIOQUIA,05467,MONTEBELLO,05467006,LA GRANJA,CP,5.9547808729999998,-75.538406359000007
05,ANTIOQUIA,05467,MONTEBELLO,05467008,PIEDRA GALANA,CP,5.8694886449999997,-75.524901823999997
05,ANTIOQUIA,05475,MURINDÓ,05475000,MURINDÓ,CM,6.9776944859999999,-76.817464118000004
05,ANTIOQUIA,05475,MURINDÓ,05475001,OPOGADO,CP,6.8145513700000002,-76.878004962000006
05,ANTIOQUIA,05475,MURINDÓ,05475005,JEDEGA,CP,6.8737237359999996,-76.785092003000003
05,ANTIOQUIA,05475,MURINDÓ,05475006,TADÍA,CP,6.8586458539999997,-76.811396723000001
05,ANTIOQUIA,05475,MURINDÓ,05475007,BEBARAMEÑO,CP,6.8457196419999997,-76.856790985000004
05,ANTIOQUIA,05480,MUTATÁ,05480000,MUTATÁ,CM,7.242875057,-76.435875401000004
05,ANTIOQUIA,05480,MUTATÁ,05480001,BEJUQUILLO,CP,7.365833877,-76.505580124000005
05,ANTIOQUIA,05480,MUTATÁ,05480002,PAVARANDOCITO,CP,7.296266879,-76.516285959000001
05,ANTIOQUIA,05480,MUTATÁ,05480003,VILLA ARTEAGA,CP,7.3560199040000001,-76.489935357999997
05,ANTIOQUIA,05480,MUTATÁ,05480004,PAVARANDO GRANDE,CP,7.2778273279999999,-76.556660085000004
05,ANTIOQUIA,05480,MUTATÁ,05480006,CAUCHERAS,CP,7.328170998,-76.488546173000003
05,ANTIOQUIA,05483,NARIÑO,05483000,NARIÑO,CM,5.6107765499999998,-75.176262113000007
05,ANTIOQUIA,05483,NARIÑO,05483001,PUERTO VENUS,CP,5.5215393439999998,-75.193205320999994
05,ANTIOQUIA,05490,NECOCLÍ,05490000,NECOCLÍ,CM,8.4261359840000001,-76.784574496999994
05,ANTIOQUIA,05490,NECOCLÍ,05490001,EL TOTUMO,CP,8.3280992329999997,-76.747081983000001
05,ANTIOQUIA,05490,NECOCLÍ,05490002,MULATOS,CP,8.6323733499999999,-76.717439472999999
05,ANTIOQUIA,05490,NECOCLÍ,05490003,PUEBLO NUEVO,CP,8.4142915150000004,-76.644053483999997
05,ANTIOQUIA,05490,NECOCLÍ,05490004,ZAPATA,CP,8.684729334,-76.637086081000007
05,ANTIOQUIA,05490,NECOCLÍ,05490005,CARIBIA,CP,8.5017737909999997,-76.671092075999994
05,ANTIOQUIA,05490,NECOCLÍ,05490006,VEREDA CASA BLANCA,CP,8.3698827680000001,-76.755246689000003
05,ANTIOQUIA,05490,NECOCLÍ,05490007,VEREDA EL BOBAL,CP,8.4131302849999994,-76.755093755999994
05,ANTIOQUIA,05490,NECOCLÍ,05490008,LAS CHANGAS,CP,8.5475361509999992,-76.574011571
05,ANTIOQUIA,05490,NECOCLÍ,05490009,EL MELLITO,CP,8.5472158690000004,-76.670333295999995
05,ANTIOQUIA,05490,NECOCLÍ,05490010,BRISAS DEL RÍO,CP,8.4148209390000002,-76.630298100000005
05,ANTIOQUIA,05490,NECOCLÍ,05490011,CARLOS ARRIBA,CP,8.3882105879999997,-76.733474438000002
05,ANTIOQUIA,05490,NECOCLÍ,05490012,EL VOLAO,CP,8.5454810059999993,-76.558279725999995
05,ANTIOQUIA,05490,NECOCLÍ,05490013,LA COMARCA,CP,8.4459070920000006,-76.637694494000002
05,ANTIOQUIA,05490,NECOCLÍ,05490014,LOMA DE PIEDRA,CP,8.4263848259999996,-76.652426499000001
05,ANTIOQUIA,05490,NECOCLÍ,05490015,MELLO VILLAVICENCIO,CP,8.4582225550000008,-76.563706843000006
05,ANTIOQUIA,05490,NECOCLÍ,05490016,TULAPITA,CP,8.3688148279999997,-76.616789678000004
05,ANTIOQUIA,05490,NECOCLÍ,05490018,VALE PAVA,CP,8.4671100490000004,-76.735469503000004
05,ANTIOQUIA,05495,NECHÍ,05495000,NECHÍ,CM,8.0941286609999992,-74.776470121000003
05,ANTIOQUIA,05495,NECHÍ,05495001,BIJAGUAL,CP,7.8561822890000004,-74.808898147999997
05,ANTIOQUIA,05495,NECHÍ,05495002,COLORADO,CP,8.0566155590000008,-74.875370153999995
05,ANTIOQUIA,05495,NECHÍ,05495003,LA CONCHA,CP,7.9483832010000004,-74.868204148999993
05,ANTIOQUIA,05495,NECHÍ,05495004,LAS FLORES,CP,8.0997085210000002,-74.758382175999998
05,ANTIOQUIA,05495,NECHÍ,05495005,CARGUEROS,CP,7.886825666,-74.809710561000003
05,ANTIOQUIA,05501,OLAYA,05501000,OLAYA,CM,6.6275243100000001,-75.812301192000007
05,ANTIOQUIA,05501,OLAYA,05501001,LLANADAS,CP,6.6121529849999998,-75.763924477000003
05,ANTIOQUIA,05501,OLAYA,05501002,SUCRE,CP,6.5948099429999996,-75.7961837
05,ANTIOQUIA,05501,OLAYA,05501004,QUEBRADA SECA,CP,6.5768660089999997,-75.792195692999996
05,ANTIOQUIA,05541,PEÑOL,05541000,PEÑOL,CM,6.2194195560000001,-75.242773487999997
05,ANTIOQUIA,05543,PEQUE,05543000,PEQUE,CM,7.0210195259999999,-75.910346845999996
05,ANTIOQUIA,05543,PEQUE,05543001,BARBACOAS,CP,6.9259141890000002,-75.829041009999997
05,ANTIOQUIA,05543,PEQUE,05543003,LOS LLANOS,CP,7.0657205149999998,-75.905121941999994
05,ANTIOQUIA,05576,PUEBLORRICO,05576000,PUEBLORRICO,CM,5.7929840949999996,-75.837369778999999
05,ANTIOQUIA,05579,PUERTO BERRÍO,05579000,PUERTO BERRÍO,CM,6.487032439,-74.409949221999995
05,ANTIOQUIA,05579,PUERTO BERRÍO,05579001,PUERTO MURILLO,CP,6.6048079580000003,-74.394200526000006
05,ANTIOQUIA,05579,PUERTO BERRÍO,05579002,VIRGINIAS,CP,6.3909402320000002,-74.681611593
05,ANTIOQUIA,05579,PUERTO BERRÍO,05579003,CABAÑAS,CP,6.3924014610000004,-74.625964861
05,ANTIOQUIA,05579,PUERTO BERRÍO,05579004,EL BRASIL,CP,6.4808860380000004,-74.607798766000002
05,ANTIOQUIA,05579,PUERTO BERRÍO,05579005,LA CRISTALINA,CP,6.4108039510000001,-74.577192460999996
05,ANTIOQUIA,05579,PUERTO BERRÍO,05579009,MALENA,CP,6.4406217339999996,-74.491525803000002
05,ANTIOQUIA,05579,PUERTO BERRÍO,05579010,CALERA,CP,6.4334128550000003,-74.537241757000004
05,ANTIOQUIA,05579,PUERTO BERRÍO,05579011,BODEGAS,CP,6.7156883069999997,-74.408832548000007
05,ANTIOQUIA,05579,PUERTO BERRÍO,05579012,DORADO - CALAMAR,CP,6.4446813430000001,-74.652114894999997
05,ANTIOQUIA,05579,PUERTO BERRÍO,05579013,LA CARLOTA,CP,6.4922256650000003,-74.571592847000005
05,ANTIOQUIA,05579,PUERTO BERRÍO,05579014,MINAS DEL VAPOR,CP,6.4579659229999997,-74.627884918999996
05,ANTIOQUIA,05579,PUERTO BERRÍO,05579015,SANTA MARTINA,CP,6.6574610789999999,-74.430665239000007
05,ANTIOQUIA,05585,PUERTO NARE,05585000,PUERTO NARE,CM,6.1860248279999999,-74.583012014999994
05,ANTIOQUIA,05585,PUERTO NARE,05585001,ARABIA,CP,6.1538200109999996,-74.766168984999993
05,ANTIOQUIA,05585,PUERTO NARE,05585002,LOS DELIRIOS,CP,6.0807419999999999,-74.755198264000001
05,ANTIOQUIA,05585,PUERTO NARE,05585003,LA SIERRA,CP,6.2194810890000003,-74.571688766999998
05,ANTIOQUIA,05585,PUERTO NARE,05585004,LA UNIÓN,CP,6.1848165740000001,-74.702970200999999
05,ANTIOQUIA,05585,PUERTO NARE,05585006,LA PESCA,CP,6.2059600240000004,-74.591134079
05,ANTIOQUIA,05585,PUERTO NARE,05585008,LAS ANGELITAS,CP,6.0472503670000002,-74.584111562000004
05,ANTIOQUIA,05585,PUERTO NARE,05585009,LA CLARA,CP,6.207897386,-74.704580105000005
05,ANTIOQUIA,05585,PUERTO NARE,05585010,EL PRODIGIO,CP,6.063393338,-74.808208723999996
05,ANTIOQUIA,05591,PUERTO TRIUNFO,05591000,PUERTO TRIUNFO,CM,5.8713183000000004,-74.641190406999996
05,ANTIOQUIA,05591,PUERTO TRIUNFO,05591002,PUERTO PERALES NUEVO,CP,5.9885009389999997,-74.587459858000003
05,ANTIOQUIA,05591,PUERTO TRIUNFO,05591003,ESTACIÓN COCORNÁ,CP,6.0336036220000002,-74.639186953000006
05,ANTIOQUIA,05591,PUERTO TRIUNFO,05591004,DORADAL,CP,5.899897642,-74.735233621000006
05,ANTIOQUIA,05591,PUERTO TRIUNFO,05591005,LA MERCEDES,CP,5.9285888939999998,-74.773098239999996
05,ANTIOQUIA,05591,PUERTO TRIUNFO,05591007,ESTACIÓN PITA,CP,5.9539454049999998,-74.633662797
05,ANTIOQUIA,05591,PUERTO TRIUNFO,05591008,LA FLORIDA,CP,5.9289639459999997,-74.810684928000001
05,ANTIOQUIA,05591,PUERTO TRIUNFO,05591009,SANTIAGO BERRIO,CP,5.9041721760000003,-74.643013601000007
05,ANTIOQUIA,05591,PUERTO TRIUNFO,05591010,EL ALTO DEL POLLO,CP,5.9013721739999996,-74.771066118999997
05,ANTIOQUIA,05591,PUERTO TRIUNFO,05591011,TRES RANCHOS,CP,5.9167971489999998,-74.797141035999999
05,ANTIOQUIA,05604,REMEDIOS,05604000,REMEDIOS,CM,7.0260940529999996,-74.695944257999997
05,ANTIOQUIA,05604,REMEDIOS,05604001,LA CRUZADA,CP,7.0736038020000001,-74.712871245000002
05,ANTIOQUIA,05604,REMEDIOS,05604003,SANTA ISABEL,CP,6.9451542279999998,-74.742711650999993
05,ANTIOQUIA,05604,REMEDIOS,05604005,OTÚ,CP,7.0117605269999999,-74.717053523000004
05,ANTIOQUIA,05604,REMEDIOS,05604007,CAÑAVERAL,CP,7.1745293739999996,-74.591737398000006
05,ANTIOQUIA,05604,REMEDIOS,05604008,MARTANA,CP,7.0011847960000004,-74.676903846000002
05,ANTIOQUIA,05604,REMEDIOS,05604009,RÍO BAGRE,CP,7.1562281280000004,-74.630168823999995
05,ANTIOQUIA,05604,REMEDIOS,05604010,CAMPO VIJAO,CP,6.9131718109999998,-74.361323522999996
05,ANTIOQUIA,05604,REMEDIOS,05604011,CHORRO DE LAGRIMAS,CP,,
05,ANTIOQUIA,05607,RETIRO,05607000,RETIRO,CM,6.0624541750000001,-75.501301475999995
05,ANTIOQUIA,05607,RETIRO,05607003,ALTO DE CARRIZALES,CP,6.1401513430000003,-75.519304321000007
05,ANTIOQUIA,05607,RETIRO,05607004,DON DIEGO,CP,6.0891616539999998,-75.480450748999999
05,ANTIOQUIA,05607,RETIRO,05607005,EL CHUSCAL LA CAMPANITA,CP,6.0527734940000002,-75.452023980999996
05,ANTIOQUIA,05607,RETIRO,05607007,LOS SALADOS,CP,6.1185245310000003,-75.500039490000006
05,ANTIOQUIA,05607,RETIRO,05607009,EL PORTENTO,CP,6.0722215469999998,-75.468583383999999
05,ANTIOQUIA,05607,RETIRO,05607013,CARRIZALES LA BORRASCOSA,CP,6.1384315369999998,-75.511696904999994
05,ANTIOQUIA,05615,RIONEGRO,05615000,RIONEGRO,CM,6.1472312230000004,-75.376741827999993
05,ANTIOQUIA,05615,RIONEGRO,05615002,EL TABLAZO,CP,6.1431513610000001,-75.448696515999998
05,ANTIOQUIA,05615,RIONEGRO,05615009,CABECERAS DE LLANO GRANDE,CP,6.1008673959999999,-75.425597625999998
05,ANTIOQUIA,05615,RIONEGRO,05615013,PONTEZUELA,CP,6.0801481580000001,-75.424096919999997
05,ANTIOQUIA,05615,RIONEGRO,05615014,ALTO BONITO,CP,6.162996154,-75.384892722000004
05,ANTIOQUIA,05615,RIONEGRO,05615017,LA MOSCA,CP,6.2018067879999998,-75.381903063999999
05,ANTIOQUIA,05615,RIONEGRO,05615025,BARRO BLANCO,CP,6.1492144870000001,-75.406818598000001
05,ANTIOQUIA,05615,RIONEGRO,05615026,CONDOMINIO CAMPESTRE LAGO GRANDE,CP,6.1241573330000003,-75.444111156000005
05,ANTIOQUIA,05615,RIONEGRO,05615027,CONDOMINIO EL REMANSO,CP,6.1333241550000004,-75.399627034000005
05,ANTIOQUIA,05615,RIONEGRO,05615028,CONDOMINIO SIERRAS DE MAYORI,CP,6.161659566,-75.440631680999999
05,ANTIOQUIA,05615,RIONEGRO,05615029,CONDOMINIO VILLAS DE LLANO GRANDE,CP,6.1355418950000002,-75.394153028000005
05,ANTIOQUIA,05615,RIONEGRO,05615030,GALICIA PARTE ALTA,CP,6.1943972900000004,-75.359817656999994
05,ANTIOQUIA,05615,RIONEGRO,05615031,GALICIA PARTE BAJA,CP,6.1854780260000002,-75.366102022999996
05,ANTIOQUIA,05615,RIONEGRO,05615032,JAMAICA PARCELACION CAMPESTRE,CP,6.182663002,-75.442752573000007
05,ANTIOQUIA,05615,RIONEGRO,05615033,PARCELACIÓN AGUA LUNA DE ORIENTE,CP,6.1305619550000001,-75.419616914000002
05,ANTIOQUIA,05615,RIONEGRO,05615034,PARCELACION ANDALUCIA,CP,6.1326220019999997,-75.429815516999994
05,ANTIOQUIA,05615,RIONEGRO,05615035,PARCELACION CAMELOT,CP,6.1176647199999996,-75.406102860000004
05,ANTIOQUIA,05615,RIONEGRO,05615036,PARCELACIÓN COCUYO,CP,6.1138441840000004,-75.415280826
05,ANTIOQUIA,05615,RIONEGRO,05615037,PARCELACIÓN COLINAS DE PAIMADÓ,CP,6.147075536,-75.438254153000003
05,ANTIOQUIA,05615,RIONEGRO,05615039,PARCELACIÓN LA QUERENCIA,CP,6.1688094619999996,-75.448156787000002
05,ANTIOQUIA,05615,RIONEGRO,05615043,PARCELACION SANTA MARIA DEL LLANO,CP,6.1287226600000002,-75.399281020000004
05,ANTIOQUIA,05615,RIONEGRO,05615045,PARCELACIÓN TORRE MOLINOS,CP,6.1374911670000003,-75.435820516999996
05,ANTIOQUIA,05615,RIONEGRO,05615046,PARCELACIÓN TOSCANA,CP,6.099735044,-75.408454696000007
05,ANTIOQUIA,05615,RIONEGRO,05615047,PARCELACIÓN VEGAS DE GUADALCANAL,CP,6.1453495770000002,-75.401912529000001
05,ANTIOQUIA,05628,SABANALARGA,05628000,SABANALARGA,CM,6.850027892,-75.816644652999997
05,ANTIOQUIA,05628,SABANALARGA,05628001,EL JUNCO,CP,6.80660884,-75.825036905999994
05,ANTIOQUIA,05628,SABANALARGA,05628002,EL ORO,CP,6.9320192599999997,-75.755228967999997
05,ANTIOQUIA,05628,SABANALARGA,05628004,EL SOCORRO,CP,6.90531162,-75.746469981000004
05,ANTIOQUIA,05628,SABANALARGA,05628007,MEMBRILLAL,CP,6.8944725309999999,-75.805959545999997
05,ANTIOQUIA,05631,SABANETA,05631000,SABANETA,CM,6.1509633409999998,-75.615559121999993
05,ANTIOQUIA,05631,SABANETA,05631001,MARÍA AUXILIADORA,CP,6.1499489499999997,-75.599902946
05,ANTIOQUIA,05631,SABANETA,05631002,CAÑAVERALEJO,CP,6.1403902129999999,-75.621196816999998
05,ANTIOQUIA,05631,SABANETA,05631006,SAN ISIDRO,CP,6.1410188369999998,-75.609052896999998
05,ANTIOQUIA,05631,SABANETA,05631007,LA INMACULADA,CP,6.1418494839999997,-75.610829520999999
05,ANTIOQUIA,05631,SABANETA,05631008,PAN DE AZÚCAR,CP,6.1398794460000001,-75.630590273999999
05,ANTIOQUIA,05631,SABANETA,05631009,LA DOCTORA,CP,6.1376923889999997,-75.611164551000002
05,ANTIOQUIA,05631,SABANETA,05631010,LAS LOMITAS,CP,6.1425249559999999,-75.602105901000002
05,ANTIOQUIA,05631,SABANETA,05631013,LOMA DE LOS HENAO,CP,6.1340410639999998,-75.608946950999993
05,ANTIOQUIA,05642,SALGAR,05642000,SALGAR,CM,5.9658169929999998,-75.982237346999995
05,ANTIOQUIA,05642,SALGAR,05642001,EL CONCILIO,CP,5.9587877259999997,-75.934414064999999
05,ANTIOQUIA,05642,SALGAR,05642002,LA CÁMARA,CP,6.0280845010000004,-75.983801897999996
05,ANTIOQUIA,05642,SALGAR,05642003,LA MARGARITA,CP,5.9590030619999999,-76.006284878000002
05,ANTIOQUIA,05642,SALGAR,05642010,PEÑALISA,CP,5.9341530120000003,-75.859526224000007
05,ANTIOQUIA,05647,SAN ANDRÉS DE CUERQUÍA,05647000,SAN ANDRÉS DE CUERQUÍA,CM,6.9125582430000003,-75.676007599000002
05,ANTIOQUIA,05649,SAN CARLOS,05649000,SAN CARLOS,CM,6.1879915680000002,-74.987952562999993
05,ANTIOQUIA,05649,SAN CARLOS,05649001,EL JORDÁN,CP,6.2526780559999997,-74.830200575999996
05,ANTIOQUIA,05649,SAN CARLOS,05649002,SAMANÁ,CP,6.1298432959999998,-74.833489069999999
05,ANTIOQUIA,05649,SAN CARLOS,05649005,PUERTO GARZA,CP,6.2061302469999999,-74.755819058
05,ANTIOQUIA,05649,SAN CARLOS,05649012,DOS QUEBRADAS,CP,6.1654945789999998,-75.034094065999994
05,ANTIOQUIA,05649,SAN CARLOS,05649013,LA HONDITA,CP,6.1413497589999997,-75.068535650000001
05,ANTIOQUIA,05649,SAN CARLOS,05649014,VALLEJUELO,CP,6.1999618139999999,-75.022383990999998
05,ANTIOQUIA,05652,SAN FRANCISCO,05652000,SAN FRANCISCO,CM,5.9617774170000004,-75.101466248999998
05,ANTIOQUIA,05652,SAN FRANCISCO,05652001,AQUITANIA,CP,5.839643143,-74.969176099999999
05,ANTIOQUIA,05652,SAN FRANCISCO,05652008,PAILANIA,CP,5.9746317879999999,-75.115174371999998
05,ANTIOQUIA,05652,SAN FRANCISCO,05652010,RÍO CLARO,CP,5.9058302859999996,-74.856114296000001
05,ANTIOQUIA,05656,SAN JERÓNIMO,05656000,SAN JERÓNIMO,CM,6.4480658569999996,-75.726999817000006
05,ANTIOQUIA,05658,SAN JOSÉ DE LA MONTAÑA,05658000,SAN JOSÉ DE LA MONTAÑA,CM,6.8500902989999997,-75.683351626999993
05,ANTIOQUIA,05659,SAN JUAN DE URABÁ,05659000,SAN JUAN DE URABÁ,CM,8.7593691749999998,-76.528796059000001
05,ANTIOQUIA,05659,SAN JUAN DE URABÁ,05659001,DAMAQUIEL,CP,8.739381667,-76.606726703999996
05,ANTIOQUIA,05659,SAN JUAN DE URABÁ,05659002,SAN JUANCITO,CP,8.6941895559999995,-76.493972155999998
05,ANTIOQUIA,05659,SAN JUAN DE URABÁ,05659003,UVEROS,CP,8.746564588,-76.580135823000006
05,ANTIOQUIA,05659,SAN JUAN DE URABÁ,05659004,SIETE VUELTAS,CP,8.641409092,-76.547676237999994
05,ANTIOQUIA,05659,SAN JUAN DE URABÁ,05659005,SAN NICOLÁS DEL RÍO,CP,8.7156744419999992,-76.591827765999994
05,ANTIOQUIA,05659,SAN JUAN DE URABÁ,05659006,BALSILLA,CP,,
05,ANTIOQUIA,05660,SAN LUIS,05660000,SAN LUIS,CM,6.0429508040000002,-74.993602386999996
05,ANTIOQUIA,05660,SAN LUIS,05660001,EL SILENCIO PERLA VERDE,CP,5.9980544440000001,-75.051546051000003
05,ANTIOQUIA,05660,SAN LUIS,05660007,BUENOS AIRES,CP,6.113726185,-75.056966226
05,ANTIOQUIA,05660,SAN LUIS,05660011,MONTELORO (LA JOSEFINA),CP,5.979000729,-74.907617497000004
05,ANTIOQUIA,05660,SAN LUIS,05660012,LA TEBAIDA,CP,6.0056960769999996,-75.025620739000004
05,ANTIOQUIA,05660,SAN LUIS,05660013,SOPETRÁN,CP,5.9742320629999996,-74.890740285999996
05,ANTIOQUIA,05660,SAN LUIS,05660014,EL SILENCIO - EL VENTIADERO,CP,6.0020679360000004,-75.048810708999994
05,ANTIOQUIA,05660,SAN LUIS,05660015,MONTELORO,CP,,
05,ANTIOQUIA,05664,SAN PEDRO DE LOS MILAGROS,05664000,SAN PEDRO DE LOS MILAGROS,CM,6.4601438670000002,-75.556719092999998
05,ANTIOQUIA,05664,SAN PEDRO DE LOS MILAGROS,05664005,OVEJAS,CP,6.3944913400000001,-75.646244042000006
05,ANTIOQUIA,05665,SAN PEDRO DE URABÁ,05665000,SAN PEDRO DE URABÁ,CM,8.2768866639999992,-76.380577885999998
05,ANTIOQUIA,05665,SAN PEDRO DE URABÁ,05665002,SANTA CATALINA,CP,8.3970644239999999,-76.317642848999995
05,ANTIOQUIA,05665,SAN PEDRO DE URABÁ,05665003,ARENAS MONAS,CP,8.4876387409999996,-76.222138217999998
05,ANTIOQUIA,05665,SAN PEDRO DE URABÁ,05665004,ZAPINDONGA,CP,8.5385035780000003,-76.278485738000001
05,ANTIOQUIA,05665,SAN PEDRO DE URABÁ,05665008,EL TOMATE,CP,8.4552802699999994,-76.365368403999994
05,ANTIOQUIA,05667,SAN RAFAEL,05667000,SAN RAFAEL,CM,6.293618768,-75.028285640999997
05,ANTIOQUIA,05670,SAN ROQUE,05670000,SAN ROQUE,CM,6.4859378999999997,-75.019109061999998
05,ANTIOQUIA,05670,SAN ROQUE,05670001,CRISTALES,CP,6.4840316910000002,-74.916719354999998
05,ANTIOQUIA,05670,SAN ROQUE,05670002,PROVIDENCIA,CP,6.5175922829999999,-74.905146626000004
05,ANTIOQUIA,05670,SAN ROQUE,05670003,SAN JOSÉ DEL NUS,CP,6.4925570840000004,-74.824984975000007
05,ANTIOQUIA,05674,SAN VICENTE FERRER,05674000,SAN VICENTE,CM,6.2821638780000004,-75.332616075999994
05,ANTIOQUIA,05674,SAN VICENTE FERRER,05674001,CORRIENTES,CP,6.3113922850000002,-75.252514554000001
05,ANTIOQUIA,05679,SANTA BÁRBARA,05679000,SANTA BÁRBARA,CM,5.8755267980000001,-75.567350744999999
05,ANTIOQUIA,05679,SANTA BÁRBARA,05679001,DAMASCO,CP,5.7913205999999997,-75.572276897999998
05,ANTIOQUIA,05679,SANTA BÁRBARA,05679004,VERSALLES,CP,5.9664617370000004,-75.590008847999997
05,ANTIOQUIA,05679,SANTA BÁRBARA,05679009,YARUMALITO,CP,5.9502739739999999,-75.577543395000006
05,ANTIOQUIA,05679,SANTA BÁRBARA,05679010,LA LIBORIANA,CP,5.9438940880000004,-75.583973251000003
05,ANTIOQUIA,05679,SANTA BÁRBARA,05679011,ZARCITOS PARTE ALTA,CP,5.9772236230000004,-75.582720394999996
05,ANTIOQUIA,05686,SANTA ROSA DE OSOS,05686000,SANTA ROSA DE OSOS,CM,6.6433655729999996,-75.460722959999998
05,ANTIOQUIA,05686,SANTA ROSA DE OSOS,05686001,ARAGÓN,CP,6.7820100639999996,-75.561211963000005
05,ANTIOQUIA,05686,SANTA ROSA DE OSOS,05686003,HOYORRICO,CP,6.6048807780000001,-75.425820432999998
05,ANTIOQUIA,05686,SANTA ROSA DE OSOS,05686004,SAN ISIDRO,CP,6.5636028519999998,-75.334400622999993
05,ANTIOQUIA,05686,SANTA ROSA DE OSOS,05686006,SAN PABLO,CP,6.6035295769999998,-75.248432496000007
05,ANTIOQUIA,05686,SANTA ROSA DE OSOS,05686008,RÍO GRANDE,CP,6.5325532329999998,-75.397617429999997
05,ANTIOQUIA,05690,SANTO DOMINGO,05690000,SANTO DOMINGO,CM,6.4749881670000002,-75.167688650000002
05,ANTIOQUIA,05690,SANTO DOMINGO,05690001,BOTERO,CP,6.539679864,-75.233051592999999
05,ANTIOQUIA,05690,SANTO DOMINGO,05690003,PORCECITO,CP,6.5474722639999996,-75.205286631999996
05,ANTIOQUIA,05690,SANTO DOMINGO,05690004,SANTIAGO,CP,6.5425451360000002,-75.155966286999998
05,ANTIOQUIA,05690,SANTO DOMINGO,05690005,VERSALLES,CP,6.5372470790000001,-75.090172385000002
05,ANTIOQUIA,05697,EL SANTUARIO,05697000,EL SANTUARIO,CM,6.1370468579999997,-75.265849794000005
05,ANTIOQUIA,05736,SEGOVIA,05736000,SEGOVIA,CM,7.0796470830000002,-74.701593263000007
05,ANTIOQUIA,05736,SEGOVIA,05736001,FRAGUAS,CP,7.2541966450000004,-74.821098900999999
05,ANTIOQUIA,05736,SEGOVIA,05736002,PUERTO CALAVERA,CP,7.1607208169999996,-74.786620572999993
05,ANTIOQUIA,05736,SEGOVIA,05736003,CAMPO ALEGRE,CP,7.0999862900000004,-74.703737337000007
05,ANTIOQUIA,05736,SEGOVIA,05736006,EL CHISPERO,CP,7.153888341,-74.784273533000004
05,ANTIOQUIA,05756,SONSÓN,05756000,SONSÓN,CM,5.7148511260000001,-75.309595853999994
05,ANTIOQUIA,05756,SONSÓN,05756001,ALTO DE SABANAS,CP,5.7192265720000002,-75.385394715000004
05,ANTIOQUIA,05756,SONSÓN,05756005,SAN MIGUEL,CP,5.7354292310000003,-74.728571778000003
05,ANTIOQUIA,05756,SONSÓN,05756030,LA DANTA,CP,5.8376814750000001,-74.828073259000007
05,ANTIOQUIA,05756,SONSÓN,05756033,JERUSALÉN,CP,5.893126584,-74.847324503999999
05,ANTIOQUIA,05761,SOPETRÁN,05761000,SOPETRÁN,CM,6.500744708,-75.747377701999994
05,ANTIOQUIA,05761,SOPETRÁN,05761001,CÓRDOBA,CP,6.517899656,-75.768998807000003
05,ANTIOQUIA,05761,SOPETRÁN,05761003,HORIZONTES,CP,6.5985065709999997,-75.739470495999996
05,ANTIOQUIA,05761,SOPETRÁN,05761005,SAN NICOLÁS,CP,6.4781230430000001,-75.821100869999995
05,ANTIOQUIA,05761,SOPETRÁN,05761011,LA MIRANDA,CP,6.5139014980000001,-75.754045414999993
05,ANTIOQUIA,05761,SOPETRÁN,05761012,SANTA BÁRBARA,CP,6.5813602539999998,-75.730712713000003
05,ANTIOQUIA,05789,TÁMESIS,05789000,TÁMESIS,CM,5.6646445610000002,-75.714429210000006
05,ANTIOQUIA,05789,TÁMESIS,05789001,PALERMO,CP,5.7328014649999997,-75.695370921000006
05,ANTIOQUIA,05789,TÁMESIS,05789002,SAN PABLO,CP,5.6033783330000002,-75.682717460999996
05,ANTIOQUIA,05790,TARAZÁ,05790000,TARAZÁ,CM,7.5801273419999999,-75.401407082999995
05,ANTIOQUIA,05790,TARAZÁ,05790001,BARRO BLANCO,CP,7.4736605520000001,-75.263512484000003
05,ANTIOQUIA,05790,TARAZÁ,05790002,EL DOCE,CP,7.4428727099999996,-75.307467337999995
05,ANTIOQUIA,05790,TARAZÁ,05790003,PUERTO ANTIOQUIA,CP,7.5362439879999998,-75.340210721999995
05,ANTIOQUIA,05790,TARAZÁ,05790004,LA CAUCANA,CP,7.6411899280000002,-75.522675645999996
05,ANTIOQUIA,05790,TARAZÁ,05790005,EL GUAIMARO,CP,7.5707511829999996,-75.470749635000004
05,ANTIOQUIA,05790,TARAZÁ,05790006,PIEDRAS,CP,7.5495271559999999,-75.380344901000001
05,ANTIOQUIA,05792,TARSO,05792000,TARSO,CM,5.863295752,-75.823214481999997
05,ANTIOQUIA,05792,TARSO,05792003,TOCA MOCHO,CP,5.8525436920000002,-75.831723722000007
05,ANTIOQUIA,05792,TARSO,05792006,EL CEDRÓN,CP,5.8235952900000001,-75.832704413000002
05,ANTIOQUIA,05809,TITIRIBÍ,05809000,TITIRIBÍ,CM,6.0609800820000004,-75.791549005999997
05,ANTIOQUIA,05809,TITIRIBÍ,05809001,LA MESETA,CP,6.0274836430000001,-75.802843308999996
05,ANTIOQUIA,05809,TITIRIBÍ,05809002,ALBANIA,CP,6.0563537849999998,-75.754949233999994
05,ANTIOQUIA,05809,TITIRIBÍ,05809003,OTRAMINA,CP,6.0851619049999996,-75.807666655000006
05,ANTIOQUIA,05809,TITIRIBÍ,05809004,SITIO VIEJO,CP,6.0752267189999998,-75.791055467000007
05,ANTIOQUIA,05809,TITIRIBÍ,05809014,PORVENIR,CP,6.045157262,-75.759847198000003
05,ANTIOQUIA,05809,TITIRIBÍ,05809016,PUERTO ESCONDIDO,CP,6.0155939859999998,-75.768415970000007
05,ANTIOQUIA,05809,TITIRIBÍ,05809018,VOLCÁN,CP,6.0588708430000002,-75.746002364000006
05,ANTIOQUIA,05819,TOLEDO,05819000,TOLEDO,CM,7.0101540289999997,-75.691442413000004
05,ANTIOQUIA,05819,TOLEDO,05819001,BUENAVISTA,CP,6.9385885119999999,-75.703739823000006
05,ANTIOQUIA,05819,TOLEDO,05819002,EL VALLE,CP,7.0520633720000001,-75.674204595999996
05,ANTIOQUIA,05819,TOLEDO,05819005,EL BRUGO,CP,7.026440944,-75.736078805000005
05,ANTIOQUIA,05837,TURBO,05837000,"TURBO, DISTRITO PORTUARIO, LOGÍSTICO, INDUSTRIAL, TURÍSTICO Y COMERCIAL",CM,8.0891642190000006,-76.729121250000006
05,ANTIOQUIA,05837,TURBO,05837001,CURRULAO,CP,7.9968979539999996,-76.632247300000003
05,ANTIOQUIA,05837,TURBO,05837002,NUEVA COLONIA,CP,7.9343233599999996,-76.716445891999996
05,ANTIOQUIA,05837,TURBO,05837003,EL TRES,CP,8.0651609549999996,-76.659240639000004
05,ANTIOQUIA,05837,TURBO,05837005,SAN VICENTE DEL CONGO,CP,8.2316102289999993,-76.454698332000007
05,ANTIOQUIA,05837,TURBO,05837006,TIE,CP,8.2358167739999999,-76.752469810999997
05,ANTIOQUIA,05837,TURBO,05837007,LOMAS AISLADAS,CP,7.6506859909999996,-76.962203141000003
05,ANTIOQUIA,05837,TURBO,05837008,RÍO GRANDE,CP,7.928728864,-76.624704383999998
05,ANTIOQUIA,05837,TURBO,05837009,BOCAS DEL RÍO ATRATO,CP,8.0874659569999992,-76.838220727000007
05,ANTIOQUIA,05837,TURBO,05837010,EL DOS,CP,8.1275858900000006,-76.681063570000006
05,ANTIOQUIA,05837,TURBO,05837012,PUEBLO BELLO,CP,8.2043483699999999,-76.526303126000002
05,ANTIOQUIA,05837,TURBO,05837013,SAN JOSÉ DE MULATOS,CP,8.3712078200000004,-76.485719153999995
05,ANTIOQUIA,05837,TURBO,05837014,PUERTO RICO,CP,7.4918025229999996,-76.656578366000005
05,ANTIOQUIA,05837,TURBO,05837018,NUEVO ANTIOQUIA,CP,8.0375127959999997,-76.517813365999999
05,ANTIOQUIA,05837,TURBO,05837020,ALTO DE MULATOS,CP,8.1365122799999998,-76.550458925000001
05,ANTIOQUIA,05837,TURBO,05837023,CASANOVA,CP,8.0842055080000002,-76.707105612999996
05,ANTIOQUIA,05837,TURBO,05837024,LAS GARZAS,CP,8.0870752820000007,-76.697852330000003
05,ANTIOQUIA,05837,TURBO,05837025,VILLA MARÍA,CP,8.1147192179999994,-76.711578533999997
05,ANTIOQUIA,05837,TURBO,05837026,CODELSA,CP,8.0370753310000005,-76.648642061999993
05,ANTIOQUIA,05837,TURBO,05837027,EL PORVENIR,CP,8.1250946400000004,-76.694992427000003
05,ANTIOQUIA,05837,TURBO,05837028,NUEVA GRANADA,CP,8.2698690310000007,-76.495801771000004
05,ANTIOQUIA,05837,TURBO,05837029,PUNTA DE PIEDRA,CP,8.1893125629999997,-76.743950823000006
05,ANTIOQUIA,05837,TURBO,05837030,AMSTERCOL I,CP,8.0352166490000005,-76.657342564000004
05,ANTIOQUIA,05837,TURBO,05837031,AMSTERCOL II,CP,8.0321379860000004,-76.657581622999999
05,ANTIOQUIA,05837,TURBO,05837032,CIRILO,CP,8.2055692479999998,-76.746010178999995
05,ANTIOQUIA,05837,TURBO,05837033,CONGO ARRIBA,CP,8.2055837199999999,-76.423162626000007
05,ANTIOQUIA,05837,TURBO,05837034,EL UNO,CP,8.1100679499999995,-76.731091896999999
05,ANTIOQUIA,05837,TURBO,05837035,GUADUALITO,CP,8.0502771129999999,-76.694295925000006
05,ANTIOQUIA,05837,TURBO,05837036,LAS BABILLAS,CP,7.6168637700000001,-76.901591167000007
05,ANTIOQUIA,05837,TURBO,05837037,LOS ENAMORADOS,CP,8.2178690000000003,-76.486091443999996
05,ANTIOQUIA,05837,TURBO,05837038,MAKENCAL,CP,8.2826372330000009,-76.417238100999995
05,ANTIOQUIA,05837,TURBO,05837039,PIEDRECITAS,CP,8.1335325820000008,-76.712457717999996
05,ANTIOQUIA,05837,TURBO,05837040,SANTIAGO DE URABA,CP,8.3170337809999992,-76.434772095
05,ANTIOQUIA,05837,TURBO,05837041,SIETE DE AGOSTO,CP,8.1158106730000004,-76.732969901999994
05,ANTIOQUIA,05837,TURBO,05837042,SINAI,CP,8.238331123,-76.518331622000005
05,ANTIOQUIA,05837,TURBO,05837043,EL ROTO,CP,8.1876108100000007,-76.933503044999995
05,ANTIOQUIA,05842,URAMITA,05842000,URAMITA,CM,6.8985037179999997,-76.173417549000007
05,ANTIOQUIA,05842,URAMITA,05842003,EL PITAL,CP,6.8594237400000004,-76.132613527000004
05,ANTIOQUIA,05842,URAMITA,05842004,EL MADERO,CP,6.8431106379999997,-76.139872639999993
05,ANTIOQUIA,05842,URAMITA,05842005,LIMÓN CHUPADERO,CP,6.9127338009999999,-76.122370681999996
05,ANTIOQUIA,05847,URRAO,05847000,URRAO,CM,6.3173232759999998,-76.133951322000001
05,ANTIOQUIA,05847,URRAO,05847003,LA ENCARNACIÓN,CP,6.4408329459999996,-76.206432023000005
05,ANTIOQUIA,05847,URRAO,05847017,SAN JOSÉ,CP,6.2565757099999999,-76.128124714999998
05,ANTIOQUIA,05854,VALDIVIA,05854000,VALDIVIA,CM,7.1653399999999996,-75.439198438999995
05,ANTIOQUIA,05854,VALDIVIA,05854002,PUERTO VALDIVIA,CP,7.2949178979999996,-75.387420786000007
05,ANTIOQUIA,05854,VALDIVIA,05854003,RAUDAL VIEJO,CP,7.3477139610000002,-75.308499124999997
05,ANTIOQUIA,05854,VALDIVIA,05854010,PUERTO RAUDAL,CP,7.3634876199999999,-75.330276607000002
05,ANTIOQUIA,05856,VALPARAÍSO,05856000,VALPARAÍSO,CM,5.6145553169999998,-75.624451898000004
05,ANTIOQUIA,05858,VEGACHÍ,05858000,VEGACHÍ,CM,6.7734480560000003,-74.798743118999994
05,ANTIOQUIA,05858,VEGACHÍ,05858001,EL TIGRE,CP,6.8594737160000001,-74.798920848999998
05,ANTIOQUIA,05858,VEGACHÍ,05858003,EL CINCO,CP,6.8148694340000002,-74.683859260000006
05,ANTIOQUIA,05861,VENECIA,05861000,VENECIA,CM,5.9646646470000002,-75.735486339000005
05,ANTIOQUIA,05861,VENECIA,05861002,BOLOMBOLO,CP,5.9708349920000003,-75.838855950999999
05,ANTIOQUIA,05861,VENECIA,05861006,PALENQUE,CP,5.9727683850000002,-75.699299002999993
05,ANTIOQUIA,05861,VENECIA,05861008,LA AMALIA,CP,5.9527333919999998,-75.728814606
05,ANTIOQUIA,05861,VENECIA,05861010,VENTIADERO,CP,5.961558439,-75.739327345000007
05,ANTIOQUIA,05873,VIGÍA DEL FUERTE,05873000,VIGÍA DEL FUERTE,CM,6.5881198449999996,-76.896186979999996
05,ANTIOQUIA,05873,VIGÍA DEL FUERTE,05873001,SAN ANTONIO DE PADUA,CP,6.2873761830000001,-76.761488897000007
05,ANTIOQUIA,05873,VIGÍA DEL FUERTE,05873002,VEGAEZ,CP,,
05,ANTIOQUIA,05873,VIGÍA DEL FUERTE,05873004,SAN ALEJANDRO,CP,6.7277903730000004,-76.872759721999998
05,ANTIOQUIA,05873,VIGÍA DEL FUERTE,05873005,SAN MIGUEL,CP,6.5279981659999997,-76.825562972
05,ANTIOQUIA,05873,VIGÍA DEL FUERTE,05873006,PUERTO ANTIOQUIA,CP,6.8115177080000002,-76.969336325
05,ANTIOQUIA,05873,VIGÍA DEL FUERTE,05873007,BUCHADO,CP,6.4202556670000002,-76.779784880999998
05,ANTIOQUIA,05873,VIGÍA DEL FUERTE,05873009,PALO BLANCO,CP,6.1691195600000004,-76.700823772000007
05,ANTIOQUIA,05873,VIGÍA DEL FUERTE,05873010,BAJO MURRÍ,CP,6.6102370500000003,-76.747206282999997
05,ANTIOQUIA,05873,VIGÍA DEL FUERTE,05873011,EL ARENAL,CP,6.4929953329999996,-76.820232825999994
05,ANTIOQUIA,05873,VIGÍA DEL FUERTE,05873012,GUADUALITO,CP,6.6284726589999998,-76.892707951000006
05,ANTIOQUIA,05873,VIGÍA DEL FUERTE,05873013,LOMA MURRY,CP,6.6278171260000001,-76.710592474999999
05,ANTIOQUIA,05873,VIGÍA DEL FUERTE,05873014,SAN MARTÍN,CP,6.5343301299999998,-76.844791010999998
05,ANTIOQUIA,05873,VIGÍA DEL FUERTE,05873015,SANTA MARÍA,CP,6.2442493509999997,-76.742664880000007
05,ANTIOQUIA,05885,YALÍ,05885000,YALÍ,CM,6.6765542,-74.840059160999999
05,ANTIOQUIA,05885,YALÍ,05885027,VILLA ANITA,CP,6.6854372250000003,-74.850108335000002
05,ANTIOQUIA,05887,YARUMAL,05887000,YARUMAL,CM,6.9638377839999999,-75.418842002999995
05,ANTIOQUIA,05887,YARUMAL,05887003,CEDEÑO,CP,7.0714096880000001,-75.354491934999999
05,ANTIOQUIA,05887,YARUMAL,05887004,EL CEDRO,CP,7.1901510220000002,-75.359882264000007
05,ANTIOQUIA,05887,YARUMAL,05887006,OCHALÍ,CP,7.002954506,-75.611568534
05,ANTIOQUIA,05887,YARUMAL,05887007,LLANOS DE CUIVA,CP,6.8158691859999996,-75.486149392000002
05,ANTIOQUIA,05887,YARUMAL,05887009,EL PUEBLITO,CP,7.1810307949999999,-75.357237096999995
05,ANTIOQUIA,05887,YARUMAL,05887021,LA LOMA,CP,7.0345552470000001,-75.622049270000005
05,ANTIOQUIA,05887,YARUMAL,05887022,MINA VIEJA,CP,6.9819934379999999,-75.432970734999998
05,ANTIOQUIA,05890,YOLOMBÓ,05890000,YOLOMBÓ,CM,6.5945106280000001,-75.013384508000001
05,ANTIOQUIA,05890,YOLOMBÓ,05890001,LA FLORESTA,CP,6.6338646170000004,-74.865320201000003
05,ANTIOQUIA,05890,YOLOMBÓ,05890004,EL RUBÍ,CP,6.5661258829999998,-74.971312913000006
05,ANTIOQUIA,05890,YOLOMBÓ,05890009,VILLANUEVA,CP,6.6142089869999996,-75.152518252999997
05,ANTIOQUIA,05893,YONDÓ,05893000,YONDÓ,CM,7.0039477659999996,-73.912459709999993
05,ANTIOQUIA,05893,YONDÓ,05893001,CIÉNAGA DE BARBACOA - LA PUNTA,CP,6.8579872230000003,-74.215504760000002
05,ANTIOQUIA,05893,YONDÓ,05893002,SAN LUIS BELTRÁN,CP,6.951984468,-73.958235341000005
05,ANTIOQUIA,05893,YONDÓ,05893003,SAN MIGUEL DEL TIGRE,CP,7.0871409659999998,-73.944991074000001
05,ANTIOQUIA,05893,YONDÓ,05893004,CUATRO BOCAS,CP,,
05,ANTIOQUIA,05893,YONDÓ,05893005,BOCAS DE SAN FRANCISCO,CP,7.0028398860000003,-74.216330353999993
05,ANTIOQUIA,05893,YONDÓ,05893008,EL BAGRE,CP,7.1329051750000003,-74.061070556999994
05,ANTIOQUIA,05893,YONDÓ,05893009,BOCAS DE BARBACOAS,CP,6.7330886850000002,-74.213631176999996
05,ANTIOQUIA,05893,YONDÓ,05893014,PUERTO LOS MANGOS,CP,7.0797615970000001,-73.903054447000002
05,ANTIOQUIA,05893,YONDÓ,05893015,PUERTO MATILDE,CP,7.0402139909999999,-74.198215587000007
05,ANTIOQUIA,05893,YONDÓ,05893017,PUERTO TOMAS,CP,7.0747937240000001,-73.897464060000004
05,ANTIOQUIA,05893,YONDÓ,05893018,PUERTO CASABE,CP,7.0668555209999999,-73.892401663000001
05,ANTIOQUIA,05893,YONDÓ,05893019,LA CONDOR,CP,7.0257046140000003,-73.928038935999993
05,ANTIOQUIA,05893,YONDÓ,05893021,CHORRO DE LÁGRIMAS,CP,6.7995954850000002,-74.464005189999995
05,ANTIOQUIA,05895,ZARAGOZA,05895000,ZARAGOZA,CM,7.4885830740000001,-74.867074712000004
05,ANTIOQUIA,05895,ZARAGOZA,05895003,BUENOS AIRES,CP,7.6062223219999998,-74.813589817999997
05,ANTIOQUIA,05895,ZARAGOZA,05895004,PATO,CP,7.4963179960000002,-74.923198561999996
05,ANTIOQUIA,05895,ZARAGOZA,05895008,VEGAS DE SEGOVIA,CP,7.4874359400000001,-75.026559108000001
05,ANTIOQUIA,05895,ZARAGOZA,05895009,EL CENIZO,CP,7.3051616700000004,-74.833641884000002
05,ANTIOQUIA,05895,ZARAGOZA,05895010,EL CRISTO,CP,7.2868296270000004,-74.831149785999997
05,ANTIOQUIA,05895,ZARAGOZA,05895011,LA CALIENTE,CP,7.302311521,-74.837147490000007
08,ATLÁNTICO,08001,BARRANQUILLA,08001000,"BARRANQUILLA, DISTRITO ESPECIAL, INDUSTRIAL Y PORTUARIO",CM,10.975999518,-74.795094125999995
08,ATLÁNTICO,08078,BARANOA,08078000,BARANOA,CM,10.794825811999999,-74.916124154000002
08,ATLÁNTICO,08078,BARANOA,08078001,CAMPECHE,CP,10.72532148,-74.914251703999994
08,ATLÁNTICO,08078,BARANOA,08078002,PITAL,CP,10.841360398000001,-74.918385596999997
08,ATLÁNTICO,08078,BARANOA,08078003,SIBARCO,CP,10.815373629,-74.975380491999999
08,ATLÁNTICO,08137,CAMPO DE LA CRUZ,08137000,CAMPO DE LA CRUZ,CM,10.379240134,-74.883151733000005
08,ATLÁNTICO,08137,CAMPO DE LA CRUZ,08137001,BOHÓRQUEZ,CP,10.461130347999999,-74.834073458000006
08,ATLÁNTICO,08141,CANDELARIA,08141000,CANDELARIA,CM,10.461197696999999,-74.879905612000002
08,ATLÁNTICO,08141,CANDELARIA,08141001,SAN JOSÉ DEL CARRETAL,CP,10.439413761999999,-74.912944878000005
08,ATLÁNTICO,08141,CANDELARIA,08141002,BUENAVENTURA DE LEÑA,CP,10.517123022,-74.877912468000005
08,ATLÁNTICO,08296,GALAPA,08296000,GALAPA,CM,10.919641005000001,-74.866938099999999
08,ATLÁNTICO,08296,GALAPA,08296001,PALUATO,CP,10.875196723,-74.929672592000003
08,ATLÁNTICO,08372,JUAN DE ACOSTA,08372000,JUAN DE ACOSTA,CM,10.830185670000001,-75.040752349000002
08,ATLÁNTICO,08372,JUAN DE ACOSTA,08372001,BOCATOCINO,CP,10.816142527,-75.205024217000002
08,ATLÁNTICO,08372,JUAN DE ACOSTA,08372002,CHORRERA,CP,10.799013357,-75.011730295999996
08,ATLÁNTICO,08372,JUAN DE ACOSTA,08372003,SAN JOSÉ DE SACO,CP,10.804046386,-75.085197109999996
08,ATLÁNTICO,08372,JUAN DE ACOSTA,08372004,SANTA VERÓNICA,CP,10.882084771000001,-75.077356187000007
08,ATLÁNTICO,08372,JUAN DE ACOSTA,08372007,URBANIZACIÓN PUNTA CANGREJO,CP,10.862905267,-75.109418453000004
08,ATLÁNTICO,08421,LURUACO,08421000,LURUACO,CM,10.610559356,-75.141988123999994
08,ATLÁNTICO,08421,LURUACO,08421001,ARROYO DE PIEDRA,CP,10.630825816,-75.105046599000005
08,ATLÁNTICO,08421,LURUACO,08421002,PALMAR DE CANDELARIA,CP,10.665073488999999,-75.150112660000005
08,ATLÁNTICO,08421,LURUACO,08421003,LOS PENDALES,CP,10.618131371,-75.204378077000001
08,ATLÁNTICO,08421,LURUACO,08421004,SAN JUAN DE TOCAGUA,CP,10.637432168,-75.184687088000004
08,ATLÁNTICO,08421,LURUACO,08421005,SANTA CRUZ,CP,10.573406048000001,-75.212954374999995
08,ATLÁNTICO,08421,LURUACO,08421006,LOS LÍMITES,CP,10.629528933,-75.224099054000007
08,ATLÁNTICO,08421,LURUACO,08421007,LA PUNTICA,CP,10.617047511999999,-75.165110812999998
08,ATLÁNTICO,08421,LURUACO,08421012,BARRIGÓN,CP,10.576678542,-75.182392049000001
08,ATLÁNTICO,08421,LURUACO,08421013,SOCAVÓN,CP,10.60583744,-75.217316844999999
08,ATLÁNTICO,08433,MALAMBO,08433000,MALAMBO,CM,10.856219416,-74.774268289000005
08,ATLÁNTICO,08433,MALAMBO,08433001,CARACOLÍ,CP,10.859417755999999,-74.834065319999993
08,ATLÁNTICO,08433,MALAMBO,08433004,LA AGUADA,CP,10.862399121999999,-74.845934150999994
08,ATLÁNTICO,08433,MALAMBO,08433005,PITALITO,CP,10.813254415999999,-74.841434746000004
08,ATLÁNTICO,08436,MANATÍ,08436000,MANATÍ,CM,10.448965316000001,-74.957035810999997
08,ATLÁNTICO,08436,MANATÍ,08436001,EL PORVENIR (LAS COMPUERTAS),CP,10.409809221,-75.072756026999997
08,ATLÁNTICO,08436,MANATÍ,08436002,VILLA JUANA,CP,10.519558524000001,-75.009056622000003
08,ATLÁNTICO,08520,PALMAR DE VARELA,08520000,PALMAR DE VARELA,CM,10.738588199000001,-74.754761549999998
08,ATLÁNTICO,08520,PALMAR DE VARELA,08520001,BURRUSCOS,CP,10.673372771,-74.823142070000003
08,ATLÁNTICO,08549,PIOJÓ,08549000,PIOJÓ,CM,10.749257982,-75.107523220000004
08,ATLÁNTICO,08549,PIOJÓ,08549001,AGUAS VIVAS,CP,10.735551917,-75.073152234000005
08,ATLÁNTICO,08549,PIOJÓ,08549002,EL CERRITO,CP,10.766867089,-75.202758071000005
08,ATLÁNTICO,08549,PIOJÓ,08549003,HIBACHARO,CP,10.715347458,-75.135466455
08,ATLÁNTICO,08558,POLONUEVO,08558000,POLONUEVO,CM,10.777887099000001,-74.854040894999997
08,ATLÁNTICO,08558,POLONUEVO,08558001,PITAL DEL CARLÍN (PITALITO),CP,10.811369864,-74.840789330000007
08,ATLÁNTICO,08560,PONEDERA,08560000,PONEDERA,CM,10.641773884999999,-74.753892910999994
08,ATLÁNTICO,08560,PONEDERA,08560001,LA RETIRADA,CP,10.61612216,-74.837803449000006
08,ATLÁNTICO,08560,PONEDERA,08560002,MARTILLO,CP,10.627400307,-74.830439472999998
08,ATLÁNTICO,08560,PONEDERA,08560003,PUERTO GIRALDO,CP,10.504950288,-74.816010831
08,ATLÁNTICO,08560,PONEDERA,08560004,SANTA RITA,CP,10.593646318999999,-74.781552348000005
08,ATLÁNTICO,08560,PONEDERA,08560007,CASCAJAL,CP,,
08,ATLÁNTICO,08573,PUERTO COLOMBIA,08573000,PUERTO COLOMBIA,CM,11.022940053999999,-74.851963565000005
08,ATLÁNTICO,08573,PUERTO COLOMBIA,08573002,SALGAR,CP,11.018180428000001,-74.933872133999998
08,ATLÁNTICO,08573,PUERTO COLOMBIA,08573003,SABANILLA (MONTE CARMELO),CP,11.042846359,-74.917616232
08,ATLÁNTICO,08606,REPELÓN,08606000,REPELÓN,CM,10.493341665999999,-75.125481620000002
08,ATLÁNTICO,08606,REPELÓN,08606001,ARROYO NEGRO,CP,10.57028671,-75.149898785000005
08,ATLÁNTICO,08606,REPELÓN,08606002,CIEN PESOS,CP,10.538410364000001,-75.219841178999999
08,ATLÁNTICO,08606,REPELÓN,08606003,LAS TABLAS,CP,10.520272249,-75.221858472999998
08,ATLÁNTICO,08606,REPELÓN,08606004,ROTINET,CP,10.525287959,-75.072914105999999
08,ATLÁNTICO,08606,REPELÓN,08606005,VILLA ROSA,CP,10.411282309000001,-75.129920486000003
08,ATLÁNTICO,08606,REPELÓN,08606009,PITA,CP,10.521878491000001,-75.234491336000005
08,ATLÁNTICO,08634,SABANAGRANDE,08634000,SABANAGRANDE,CM,10.791067333999999,-74.758470587999994
08,ATLÁNTICO,08638,SABANALARGA,08638000,SABANALARGA,CM,10.632712363,-74.921235480999997
08,ATLÁNTICO,08638,SABANALARGA,08638001,AGUADA DE PABLO,CP,10.521831171000001,-75.005706207000003
08,ATLÁNTICO,08638,SABANALARGA,08638002,CASCAJAL,CP,10.597854758,-74.849302252000001
08,ATLÁNTICO,08638,SABANALARGA,08638003,COLOMBIA,CP,10.641264834999999,-75.001845959999997
08,ATLÁNTICO,08638,SABANALARGA,08638004,ISABEL LÓPEZ,CP,10.675547181000001,-75.002402615999998
08,ATLÁNTICO,08638,SABANALARGA,08638005,LA PEÑA,CP,10.582895985,-75.024114220000001
08,ATLÁNTICO,08638,SABANALARGA,08638006,MOLINERO,CP,10.655251328,-75.042466633999993
08,ATLÁNTICO,08638,SABANALARGA,08638007,MIRADOR,CP,10.534265388,-74.923400920999995
08,ATLÁNTICO,08638,SABANALARGA,08638008,GALLEGO,CP,10.552958144,-74.919731033999994
08,ATLÁNTICO,08638,SABANALARGA,08638010,PATILLA,CP,10.565998766,-74.919553956000001
08,ATLÁNTICO,08675,SANTA LUCÍA,08675000,SANTA LUCÍA,CM,10.323273214,-74.958971453000004
08,ATLÁNTICO,08675,SANTA LUCÍA,08675001,ALGODONAL,CP,10.348871390999999,-74.949387165999994
08,ATLÁNTICO,08685,SANTO TOMÁS,08685000,SANTO TOMÁS,CM,10.756056293,-74.754111858000002
08,ATLÁNTICO,08758,SOLEDAD,08758000,SOLEDAD,CM,10.910128588999999,-74.784961152999998
08,ATLÁNTICO,08770,SUAN,08770000,SUAN,CM,10.335432003999999,-74.881687159999998
08,ATLÁNTICO,08832,TUBARÁ,08832000,TUBARÁ,CM,10.873586111,-74.978704038999993
08,ATLÁNTICO,08832,TUBARÁ,08832001,CUATRO BOCAS,CP,10.922445037999999,-74.942862759999997
08,ATLÁNTICO,08832,TUBARÁ,08832002,EL MORRO,CP,10.942330649000001,-75.006505869999998
08,ATLÁNTICO,08832,TUBARÁ,08832003,GUAIMARAL,CP,10.873641750000001,-74.939716245
08,ATLÁNTICO,08832,TUBARÁ,08832004,JUARUCO,CP,10.929301219999999,-74.984598586999994
08,ATLÁNTICO,08832,TUBARÁ,08832007,CORRAL DE SAN LUIS,CP,10.894418624,-75.002631679000004
08,ATLÁNTICO,08832,TUBARÁ,08832010,PLAYA MENDOZA,CP,10.902038358,-75.038204543000006
08,ATLÁNTICO,08832,TUBARÁ,08832011,PLAYAS DE EDRIMÁN,CP,10.886094140999999,-75.067645998000003
08,ATLÁNTICO,08832,TUBARÁ,08832012,VILLAS DE PALMARITO,CP,10.889417541,-75.052789950999994
08,ATLÁNTICO,08832,TUBARÁ,08832013,NUEVA ESPERANZA,CP,10.890953444999999,-75.045537150000001
08,ATLÁNTICO,08849,USIACURÍ,08849000,USIACURÍ,CM,10.742980017000001,-74.976985122000002
11,"BOGOTÁ, D.C.",11001,"BOGOTÁ, D.C.",11001000,"BOGOTÁ, DISTRITO CAPITAL",CM,4.6501730309999996,-74.107359002999999
11,"BOGOTÁ, D.C.",11001,"BOGOTÁ, D.C.",11001002,NAZARETH,CP,4.1725054479999999,-74.147178670000002
11,"BOGOTÁ, D.C.",11001,"BOGOTÁ, D.C.",11001007,PASQUILLA,CP,4.4443481159999996,-74.156251288999997
11,"BOGOTÁ, D.C.",11001,"BOGOTÁ, D.C.",11001008,SAN JUAN,CP,4.0280785970000004,-74.316856267000006
11,"BOGOTÁ, D.C.",11001,"BOGOTÁ, D.C.",11001009,BETANIA,CP,4.2180585720000003,-74.146001756999993
11,"BOGOTÁ, D.C.",11001,"BOGOTÁ, D.C.",11001010,LA UNIÓN,CP,3.9853826959999998,-74.363583302999999
11,"BOGOTÁ, D.C.",11001,"BOGOTÁ, D.C.",11001011,MOCHUELO ALTO,CP,4.48899765,-74.148272081000002
11,"BOGOTÁ, D.C.",11001,"BOGOTÁ, D.C.",11001012,CHORRILLOS,CP,4.7812575900000001,-74.095358365999999
11,"BOGOTÁ, D.C.",11001,"BOGOTÁ, D.C.",11001013,EL DESTINO,CP,4.4090108920000004,-74.138352033999993
11,"BOGOTÁ, D.C.",11001,"BOGOTÁ, D.C.",11001014,NUEVA GRANADA,CP,3.8904373529999998,-74.359372859000004
11,"BOGOTÁ, D.C.",11001,"BOGOTÁ, D.C.",11001015,QUIBA BAJO,CP,4.5273204140000001,-74.167560318
11,"BOGOTÁ, D.C.",11001,"BOGOTÁ, D.C.",11001016,SANTO DOMINGO,CP,,
11,"BOGOTÁ, D.C.",11001,"BOGOTÁ, D.C.",11001017,TIERRA NUEVA,CP,,
13,BOLÍVAR,13001,CARTAGENA DE INDIAS,13001000,"CARTAGENA DE INDIAS, DISTRITO TURÍSTICO Y CULTURAL",CM,10.384983868000001,-75.496435857999998
13,BOLÍVAR,13001,CARTAGENA DE INDIAS,13001001,ARROYO DE PIEDRA,CP,10.608904936,-75.447422936999999
13,BOLÍVAR,13001,CARTAGENA DE INDIAS,13001002,ARROYO GRANDE,CP,10.656193381,-75.347742702999994
13,BOLÍVAR,13001,CARTAGENA DE INDIAS,13001003,BARÚ,CP,10.142461183,-75.683480927000005
13,BOLÍVAR,13001,CARTAGENA DE INDIAS,13001004,BAYUNCA,CP,10.533590482999999,-75.399505723999994
13,BOLÍVAR,13001,CARTAGENA DE INDIAS,13001005,BOCACHICA,CP,10.323644057999999,-75.587340673
13,BOLÍVAR,13001,CARTAGENA DE INDIAS,13001006,CAÑO DEL ORO,CP,10.342794031,-75.543742300000005
13,BOLÍVAR,13001,CARTAGENA DE INDIAS,13001007,ISLA FUERTE,CP,9.3815576319999998,-76.179473860000002
13,BOLÍVAR,13001,CARTAGENA DE INDIAS,13001008,LA BOQUILLA,CP,10.480822913000001,-75.492565475999996
13,BOLÍVAR,13001,CARTAGENA DE INDIAS,13001009,PASACABALLOS,CP,10.283589567,-75.515915015999994
13,BOLÍVAR,13001,CARTAGENA DE INDIAS,13001010,PUNTA CANOA,CP,10.556993379,-75.500379429000006
13,BOLÍVAR,13001,CARTAGENA DE INDIAS,13001012,SANTA ANA,CP,10.239261006,-75.555610148
13,BOLÍVAR,13001,CARTAGENA DE INDIAS,13001013,TIERRA BOMBA,CP,10.377147983,-75.575316333999993
13,BOLÍVAR,13001,CARTAGENA DE INDIAS,13001014,PUNTA ARENA,CP,10.363814318999999,-75.548431309999998
13,BOLÍVAR,13001,CARTAGENA DE INDIAS,13001015,ARARCA,CP,10.261519760000001,-75.555687195000004
13,BOLÍVAR,13001,CARTAGENA DE INDIAS,13001016,LETICIA,CP,10.182574501,-75.511330072000007
13,BOLÍVAR,13001,CARTAGENA DE INDIAS,13001017,SANTA CRUZ DEL ISLOTE (ARCHIPIÉLAGO DE SAN BERNARDO),CP,9.7859355279999996,-75.859074989999996
13,BOLÍVAR,13001,CARTAGENA DE INDIAS,13001018,EL RECREO,CP,10.198019738999999,-75.515018897999994
13,BOLÍVAR,13001,CARTAGENA DE INDIAS,13001019,PUERTO REY,CP,10.480838732,-75.462543221000004
13,BOLÍVAR,13001,CARTAGENA DE INDIAS,13001020,PONTEZUELA,CP,10.544120210999999,-75.439781393999993
13,BOLÍVAR,13001,CARTAGENA DE INDIAS,13001026,ARROYO DE LAS CANOAS,CP,10.640759066999999,-75.406387555999999
13,BOLÍVAR,13001,CARTAGENA DE INDIAS,13001027,EL PUEBLITO,CP,10.176193173,-75.741018327999996
13,BOLÍVAR,13001,CARTAGENA DE INDIAS,13001028,LAS EUROPAS,CP,10.672939044,-75.323763497000002
13,BOLÍVAR,13001,CARTAGENA DE INDIAS,13001029,MANZANILLO DEL MAR,CP,10.514939311999999,-75.497704937999998
13,BOLÍVAR,13001,CARTAGENA DE INDIAS,13001030,TIERRA BAJA,CP,10.491395849,-75.474440532000003
13,BOLÍVAR,13001,CARTAGENA DE INDIAS,13001033,MEMBRILLAL,CP,10.333642712,-75.477874548000003
13,BOLÍVAR,13001,CARTAGENA DE INDIAS,13001034,BARCELONA DE INDIAS,CP,10.52085683,-75.471715717999999
13,BOLÍVAR,13001,CARTAGENA DE INDIAS,13001035,CARTAGENA LAGUNA CLUB,CP,10.540671566,-75.465832827
13,BOLÍVAR,13001,CARTAGENA DE INDIAS,13001036,CASAS DEL MAR,CP,10.613981931,-75.453475152999999
13,BOLÍVAR,13001,CARTAGENA DE INDIAS,13001037,MÚCURA,CP,9.7799403070000004,-75.874378007000004
13,BOLÍVAR,13001,CARTAGENA DE INDIAS,13001038,PUERTO BELLO,CP,10.48272798,-75.474737308000002
13,BOLÍVAR,13006,ACHÍ,13006000,ACHÍ,CM,8.5691130659999999,-74.557064769999997
13,BOLÍVAR,13006,ACHÍ,13006002,BOYACÁ,CP,8.4480685560000008,-74.524549449999995
13,BOLÍVAR,13006,ACHÍ,13006003,BUENAVISTA,CP,8.5723573609999999,-74.532661556999997
13,BOLÍVAR,13006,ACHÍ,13006005,ALGARROBO,CP,8.4686237139999996,-74.503511454000005
13,BOLÍVAR,13006,ACHÍ,13006007,GUACAMAYO,CP,8.7284285990000008,-74.511933059
13,BOLÍVAR,13006,ACHÍ,13006011,PLAYA ALTA,CP,8.781743638,-74.500535554999999
13,BOLÍVAR,13006,ACHÍ,13006015,TACUYA ALTA,CP,8.5703202780000005,-74.469757114000004
13,BOLÍVAR,13006,ACHÍ,13006017,TRES CRUCES,CP,8.7034720459999999,-74.515809305000005
13,BOLÍVAR,13006,ACHÍ,13006019,PAYANDÉ,CP,8.4834091489999999,-74.457120470000007
13,BOLÍVAR,13006,ACHÍ,13006020,RÍO NUEVO,CP,8.4801037650000008,-74.433927709000002
13,BOLÍVAR,13006,ACHÍ,13006021,BUENOS AIRES,CP,8.4968954609999994,-74.545153396000003
13,BOLÍVAR,13006,ACHÍ,13006022,PUERTO ISABEL,CP,8.6316718479999999,-74.518800399
13,BOLÍVAR,13006,ACHÍ,13006030,CENTRO ALEGRE,CP,8.5065141529999995,-74.492208617000003
13,BOLÍVAR,13006,ACHÍ,13006033,PUERTO VENECIA,CP,8.4649568310000003,-74.529248511000006
13,BOLÍVAR,13006,ACHÍ,13006035,SANTA LUCÍA,CP,,
13,BOLÍVAR,13006,ACHÍ,13006039,LOS NÍSPEROS,CP,8.6509130439999993,-74.597274263000003
13,BOLÍVAR,13006,ACHÍ,13006041,PARAÍSO SINCERÍN,CP,8.7217940420000009,-74.606222428999999
13,BOLÍVAR,13006,ACHÍ,13006042,PROVIDENCIA,CP,8.6009354580000004,-74.551712666
13,BOLÍVAR,13030,ALTOS DEL ROSARIO,13030000,ALTOS DEL ROSARIO,CM,8.7916040889999998,-74.165051779999999
13,BOLÍVAR,13030,ALTOS DEL ROSARIO,13030001,EL RUBIO,CP,8.8067574549999996,-74.217749581999996
13,BOLÍVAR,13030,ALTOS DEL ROSARIO,13030002,LA PACHA,CP,8.7443077720000009,-74.167805414
13,BOLÍVAR,13030,ALTOS DEL ROSARIO,13030003,SAN ISIDRO,CP,8.7761689349999994,-74.274951561999998
13,BOLÍVAR,13030,ALTOS DEL ROSARIO,13030004,SANTA LUCÍA,CP,8.6728074670000002,-74.207431124999999
13,BOLÍVAR,13030,ALTOS DEL ROSARIO,13030005,SAN ISIDRO 2,CP,8.8026424379999995,-74.272159314000007
13,BOLÍVAR,13042,ARENAL,13042000,ARENAL,CM,8.4586304380000001,-73.941115826000001
13,BOLÍVAR,13042,ARENAL,13042001,BUENAVISTA,CP,8.467496787,-73.883807615999999
13,BOLÍVAR,13042,ARENAL,13042002,CARNIZALA,CP,8.4548439910000006,-73.901469667000001
13,BOLÍVAR,13042,ARENAL,13042003,SAN RAFAEL,CP,8.4393626889999993,-73.911362881000002
13,BOLÍVAR,13042,ARENAL,13042007,SANTO DOMINGO,CP,8.3680129369999996,-74.130151479000006
13,BOLÍVAR,13052,ARJONA,13052000,ARJONA,CM,10.256634523000001,-75.344500715999999
13,BOLÍVAR,13052,ARJONA,13052001,PUERTO BADEL (CAÑO SALADO),CP,10.119212667999999,-75.475821316999998
13,BOLÍVAR,13052,ARJONA,13052002,GAMBOTE,CP,10.162336555,-75.298797987
13,BOLÍVAR,13052,ARJONA,13052003,ROCHA,CP,10.109625538,-75.413036644000002
13,BOLÍVAR,13052,ARJONA,13052004,SINCERÍN,CP,10.14261971,-75.275211748999993
13,BOLÍVAR,13052,ARJONA,13052005,SAN RAFAEL DE LA CRUZ,CP,10.232221888,-75.341031399000002
13,BOLÍVAR,13052,ARJONA,13052007,CONDOMINIO HACIENDA,CP,10.295457956,-75.380582867000001
13,BOLÍVAR,13052,ARJONA,13052008,EL REMANSO,CP,10.245791015,-75.305041380000006
13,BOLÍVAR,13062,ARROYOHONDO,13062000,ARROYOHONDO,CM,10.242798482,-75.017192678000001
13,BOLÍVAR,13062,ARROYOHONDO,13062001,MACHADO,CP,10.24099904,-74.968301612999994
13,BOLÍVAR,13062,ARROYOHONDO,13062002,MONROY,CP,10.178230308,-75.086577145000007
13,BOLÍVAR,13062,ARROYOHONDO,13062003,PILÓN,CP,10.310045684,-75.005541132999994
13,BOLÍVAR,13062,ARROYOHONDO,13062004,SATO,CP,10.268613330000001,-74.972388018999993
13,BOLÍVAR,13062,ARROYOHONDO,13062006,SAN FRANCISCO (SOLABANDA),CP,10.168433963,-75.108824927000001
13,BOLÍVAR,13074,BARRANCO DE LOBA,13074000,BARRANCO DE LOBA,CM,8.9477301590000007,-74.105224284000002
13,BOLÍVAR,13074,BARRANCO DE LOBA,13074003,RÍONUEVO,CP,8.8085636160000007,-74.268699955000002
13,BOLÍVAR,13074,BARRANCO DE LOBA,13074004,SAN ANTONIO,CP,8.8714257090000004,-74.119379468999995
13,BOLÍVAR,13074,BARRANCO DE LOBA,13074005,LOS CERRITOS,CP,8.8598562229999995,-74.273873033000001
13,BOLÍVAR,13074,BARRANCO DE LOBA,13074006,LAS DELICIAS,CP,8.8967584229999996,-74.110041745999993
13,BOLÍVAR,13140,CALAMAR,13140000,CALAMAR,CM,10.251963358999999,-74.913629282000002
13,BOLÍVAR,13140,CALAMAR,13140002,BARRANCA NUEVA,CP,10.196108422,-74.936161709000004
13,BOLÍVAR,13140,CALAMAR,13140003,BARRANCA VIEJA,CP,10.149577446,-74.949751685999999
13,BOLÍVAR,13140,CALAMAR,13140004,HATO VIEJO,CP,10.303709998,-75.039305412000004
13,BOLÍVAR,13140,CALAMAR,13140009,YUCAL,CP,10.128136208000001,-74.952215609000007
13,BOLÍVAR,13140,CALAMAR,13140011,EL PROGRESO,CP,10.169858885,-75.029772288999993
13,BOLÍVAR,13160,CANTAGALLO,13160000,CANTAGALLO,CM,7.3783105410000003,-73.914647970000004
13,BOLÍVAR,13160,CANTAGALLO,13160001,SAN LORENZO,CP,7.2484066389999997,-74.024912295999997
13,BOLÍVAR,13160,CANTAGALLO,13160002,BRISAS DE BOLÍVAR,CP,7.3617211070000002,-73.928302802999994
13,BOLÍVAR,13160,CANTAGALLO,13160011,LA VICTORIA,CP,7.3428024839999999,-73.985349959999994
13,BOLÍVAR,13160,CANTAGALLO,13160015,LOS PATICOS,CP,7.2729690939999996,-73.940775122999995
13,BOLÍVAR,13160,CANTAGALLO,13160017,NO HAY COMO DIOS,CP,7.228401399,-74.024724003000003
13,BOLÍVAR,13160,CANTAGALLO,13160019,SINZONA,CP,7.4213445560000002,-73.915933721000002
13,BOLÍVAR,13160,CANTAGALLO,13160021,BUENOS AIRES,CP,7.3017263689999998,-73.939178303999995
13,BOLÍVAR,13160,CANTAGALLO,13160022,LA PEÑA,CP,7.3157875729999997,-73.986714022000001
13,BOLÍVAR,13160,CANTAGALLO,13160023,PATICO BAJO,CP,7.315889694,-73.943969648999996
13,BOLÍVAR,13160,CANTAGALLO,13160024,CUATRO BOCAS,CP,7.2116655869999997,-74.014243612000001
13,BOLÍVAR,13188,CICUCO,13188000,CICUCO,CM,9.2746503869999994,-74.645709930999999
13,BOLÍVAR,13188,CICUCO,13188001,CAMPO SERENO,CP,9.1765133940000005,-74.710151784000004
13,BOLÍVAR,13188,CICUCO,13188002,LA PEÑA,CP,9.2268850810000007,-74.739920230999999
13,BOLÍVAR,13188,CICUCO,13188003,SAN FRANCISCO DE LOBA,CP,9.1842426740000001,-74.723347808
13,BOLÍVAR,13188,CICUCO,13188005,PUEBLO NUEVO,CP,9.2156351490000006,-74.758516483999998
13,BOLÍVAR,13188,CICUCO,13188006,BODEGA,CP,9.2791830859999997,-74.678136882999993
13,BOLÍVAR,13212,CÓRDOBA,13212000,CÓRDOBA,CM,9.5869070490000006,-74.827458618999998
13,BOLÍVAR,13212,CÓRDOBA,13212001,GUAIMARAL,CP,9.4944738579999992,-74.977191919999996
13,BOLÍVAR,13212,CÓRDOBA,13212003,LA MONTAÑA DE ALONSO (MARTÍN ALONSO),CP,9.4642401589999992,-74.954261127999999
13,BOLÍVAR,13212,CÓRDOBA,13212005,SAN ANDRÉS,CP,9.5240688369999997,-74.877609253000003
13,BOLÍVAR,13212,CÓRDOBA,13212006,SINCELEJITO,CP,9.4449458310000001,-74.978894492999999
13,BOLÍVAR,13212,CÓRDOBA,13212007,TACAMOCHITO,CP,9.4514174329999996,-74.818405154999994
13,BOLÍVAR,13212,CÓRDOBA,13212008,TACAMOCHO,CP,9.477321474,-74.800235294999993
13,BOLÍVAR,13212,CÓRDOBA,13212009,SANTA LUCÍA,CP,9.4636345249999998,-74.849418374999999
13,BOLÍVAR,13212,CÓRDOBA,13212010,LA SIERRA,CP,9.5645667640000003,-74.958740289999994
13,BOLÍVAR,13212,CÓRDOBA,13212011,LAS MARÍAS,CP,9.4476161619999992,-74.934503376999999
13,BOLÍVAR,13212,CÓRDOBA,13212012,PUEBLO NUEVO,CP,9.4376051459999992,-74.908682350000007
13,BOLÍVAR,13212,CÓRDOBA,13212013,SANAHUARE,CP,9.4373600230000001,-74.884397128000003
13,BOLÍVAR,13212,CÓRDOBA,13212014,SOCORRO 1,CP,9.4554028100000007,-74.988768930000006
13,BOLÍVAR,13212,CÓRDOBA,13212015,BELLAVISTA,CP,9.4566876719999993,-74.949083478999995
13,BOLÍVAR,13212,CÓRDOBA,13212016,LAS LOMITAS,CP,9.4817425830000008,-74.913274307999998
13,BOLÍVAR,13222,CLEMENCIA,13222000,CLEMENCIA,CM,10.567540049,-75.328512024000005
13,BOLÍVAR,13222,CLEMENCIA,13222001,LAS CARAS,CP,10.550407315999999,-75.240806841999998
13,BOLÍVAR,13222,CLEMENCIA,13222002,EL PEÑIQUE,CP,10.538758981999999,-75.260587627000007
13,BOLÍVAR,13244,EL CARMEN DE BOLÍVAR,13244000,EL CARMEN DE BOLÍVAR,CM,9.7185201219999993,-75.121204547999994
13,BOLÍVAR,13244,EL CARMEN DE BOLÍVAR,13244001,BAJO GRANDE,CP,9.6867388519999995,-75.223267759999999
13,BOLÍVAR,13244,EL CARMEN DE BOLÍVAR,13244002,CARACOLÍ GRANDE,CP,9.7396899119999993,-75.227375769999995
13,BOLÍVAR,13244,EL CARMEN DE BOLÍVAR,13244003,EL SALADO,CP,9.5821338409999992,-75.035688415999999
13,BOLÍVAR,13244,EL CARMEN DE BOLÍVAR,13244004,JESÚS DEL MONTE,CP,9.7492079950000008,-74.980504041000003
13,BOLÍVAR,13244,EL CARMEN DE BOLÍVAR,13244005,MACAYEPOS,CP,9.6799570979999991,-75.341166579000003
13,BOLÍVAR,13244,EL CARMEN DE BOLÍVAR,13244006,SAN CARLOS,CP,9.7112411919999992,-75.236869835999997
13,BOLÍVAR,13244,EL CARMEN DE BOLÍVAR,13244007,SAN ISIDRO,CP,9.7663899010000002,-75.217410283000007
13,BOLÍVAR,13244,EL CARMEN DE BOLÍVAR,13244008,HATO NUEVO,CP,9.7323296670000001,-75.057661807000002
13,BOLÍVAR,13244,EL CARMEN DE BOLÍVAR,13244011,EL RAIZAL,CP,9.7060298159999991,-75.216274670000004
13,BOLÍVAR,13244,EL CARMEN DE BOLÍVAR,13244014,SANTA LUCÍA,CP,9.6971784200000002,-75.221338947000007
13,BOLÍVAR,13244,EL CARMEN DE BOLÍVAR,13244017,SANTO DOMINGO DE MEZA,CP,9.7985918830000003,-75.315654265999996
13,BOLÍVAR,13244,EL CARMEN DE BOLÍVAR,13244018,EL HOBO,CP,9.6716231500000003,-75.237157863999997
13,BOLÍVAR,13244,EL CARMEN DE BOLÍVAR,13244019,ARROYO ARENA,CP,9.7265461379999998,-75.17066045
13,BOLÍVAR,13244,EL CARMEN DE BOLÍVAR,13244020,LÁZARO,CP,9.7194614060000006,-75.313868335999999
13,BOLÍVAR,13244,EL CARMEN DE BOLÍVAR,13244021,PADULA,CP,9.6636439109999994,-75.130464066000002
13,BOLÍVAR,13244,EL CARMEN DE BOLÍVAR,13244022,VERDÚN,CP,9.645548453,-75.141863142999995
13,BOLÍVAR,13248,EL GUAMO,13248000,EL GUAMO,CM,10.030874074,-74.976101790000001
13,BOLÍVAR,13248,EL GUAMO,13248001,LA ENEA,CP,10.067784155,-74.942487549000006
13,BOLÍVAR,13248,EL GUAMO,13248002,SAN JOSÉ DE LATA,CP,10.048107541,-75.027978535000003
13,BOLÍVAR,13248,EL GUAMO,13248003,NERVITÍ,CP,9.9956334200000008,-74.799459021999994
13,BOLÍVAR,13248,EL GUAMO,13248004,ROBLES,CP,10.074858802,-74.843169747000005
13,BOLÍVAR,13248,EL GUAMO,13248005,TASAJERA,CP,10.025594830999999,-74.822577304000006
13,BOLÍVAR,13268,EL PEÑÓN,13268000,EL PEÑÓN,CM,8.9882829350000009,-73.949288542999994
13,BOLÍVAR,13268,EL PEÑÓN,13268003,BUENOS AIRES,CP,8.7507356040000008,-73.933346537000006
13,BOLÍVAR,13268,EL PEÑÓN,13268004,CASTAÑAL,CP,8.9448205620000003,-73.939302767000001
13,BOLÍVAR,13268,EL PEÑÓN,13268006,LA CHAPETONA,CP,8.8966900320000004,-73.965507747999993
13,BOLÍVAR,13268,EL PEÑÓN,13268008,JAPÓN,CP,8.9364746719999992,-73.870837287000001
13,BOLÍVAR,13268,EL PEÑÓN,13268013,LA HUMAREDA,CP,8.9059313059999994,-73.874038298000002
13,BOLÍVAR,13268,EL PEÑÓN,13268017,PEÑONCITO,CP,8.9759777740000004,-73.928990631000005
13,BOLÍVAR,13300,HATILLO DE LOBA,13300000,HATILLO DE LOBA,CM,8.9557076089999992,-74.078329847999996
13,BOLÍVAR,13300,HATILLO DE LOBA,13300001,EL POZÓN,CP,9.0006055099999998,-74.401077674000007
13,BOLÍVAR,13300,HATILLO DE LOBA,13300002,JUANA SÁNCHEZ,CP,8.9643013059999994,-74.023487110999994
13,BOLÍVAR,13300,HATILLO DE LOBA,13300003,LA RIBONA,CP,9.01355197,-74.061864044999993
13,BOLÍVAR,13300,HATILLO DE LOBA,13300004,LA VICTORIA,CP,8.9488702660000001,-74.219751212999995
13,BOLÍVAR,13300,HATILLO DE LOBA,13300005,PUEBLO NUEVO,CP,8.9720897219999998,-74.340080639000007
13,BOLÍVAR,13300,HATILLO DE LOBA,13300006,SAN MIGUEL,CP,8.9828643810000006,-73.992241390000004
13,BOLÍVAR,13300,HATILLO DE LOBA,13300007,CERRO DE LAS AGUADAS,CP,8.954224473,-74.054418259000002
13,BOLÍVAR,13300,HATILLO DE LOBA,13300008,LAS BRISAS,CP,8.9715237489999993,-74.367125393999999
13,BOLÍVAR,13300,HATILLO DE LOBA,13300009,GUALÍ,CP,8.9588307900000004,-74.157966485000003
13,BOLÍVAR,13300,HATILLO DE LOBA,13300010,LAS PALMAS,CP,8.974611415,-74.379646804000004
13,BOLÍVAR,13430,MAGANGUÉ,13430000,MAGANGUÉ,CM,9.2685404820000006,-74.770174570999998
13,BOLÍVAR,13430,MAGANGUÉ,13430001,BARBOSA,CP,9.0239355460000006,-74.637641017999997
13,BOLÍVAR,13430,MAGANGUÉ,13430002,BARRANCA DE YUCA,CP,9.1793655360000006,-74.853006921000002
13,BOLÍVAR,13430,MAGANGUÉ,13430003,BETANIA,CP,9.3802502679999993,-74.821581097000006
13,BOLÍVAR,13430,MAGANGUÉ,13430004,BOCA DE SAN ANTONIO,CP,9.0411205779999992,-74.764375784999999
13,BOLÍVAR,13430,MAGANGUÉ,13430006,CASCAJAL,CP,9.3145936030000005,-74.806676897000003
13,BOLÍVAR,13430,MAGANGUÉ,13430007,CEIBAL,CP,9.3556913589999997,-74.809573904999993
13,BOLÍVAR,13430,MAGANGUÉ,13430008,COYONGAL,CP,8.9182180009999996,-74.488352825000007
13,BOLÍVAR,13430,MAGANGUÉ,13430009,EL RETIRO,CP,9.1693328889999997,-74.734907246000006
13,BOLÍVAR,13430,MAGANGUÉ,13430010,GUAZO,CP,9.1596535849999992,-74.736343921
13,BOLÍVAR,13430,MAGANGUÉ,13430011,HENEQUÉN,CP,9.2719311169999994,-74.831128590999995
13,BOLÍVAR,13430,MAGANGUÉ,13430013,JUAN ARIAS,CP,9.3240229919999997,-74.922126301999995
13,BOLÍVAR,13430,MAGANGUÉ,13430014,LA PASCUALA,CP,9.3960849789999994,-74.813343411999995
13,BOLÍVAR,13430,MAGANGUÉ,13430015,LA VENTURA,CP,9.2241312949999994,-74.881695969999996
13,BOLÍVAR,13430,MAGANGUÉ,13430016,LAS BRISAS,CP,9.4324402719999991,-74.746813674999999
13,BOLÍVAR,13430,MAGANGUÉ,13430017,MADRID,CP,9.1938524410000007,-74.749654110999998
13,BOLÍVAR,13430,MAGANGUÉ,13430018,PALMARITO,CP,9.0561525669999998,-74.672499926
13,BOLÍVAR,13430,MAGANGUÉ,13430019,PANSEGÜITA,CP,9.0923091530000004,-74.703780301999998
13,BOLÍVAR,13430,MAGANGUÉ,13430020,PIÑALITO,CP,9.1339441370000003,-74.797285470999995
13,BOLÍVAR,13430,MAGANGUÉ,13430021,SAN RAFAEL DE CORTINA,CP,9.3041620789999993,-74.774887539999995
13,BOLÍVAR,13430,MAGANGUÉ,13430022,SAN JOSÉ DE LAS MARTAS,CP,8.9906619209999992,-74.538506307999995
13,BOLÍVAR,13430,MAGANGUÉ,13430023,SAN SEBASTIÁN DE BUENAVISTA,CP,8.9911884000000004,-74.588052520000005
13,BOLÍVAR,13430,MAGANGUÉ,13430024,SANTA FE,CP,9.2957610099999997,-74.711311812000005
13,BOLÍVAR,13430,MAGANGUÉ,13430025,SANTA LUCÍA,CP,9.3141487969999996,-74.710770212
13,BOLÍVAR,13430,MAGANGUÉ,13430026,SANTA MÓNICA,CP,8.8235470300000003,-74.476306621000006
13,BOLÍVAR,13430,MAGANGUÉ,13430027,SANTA PABLA,CP,8.8438445629999993,-74.465495966000006
13,BOLÍVAR,13430,MAGANGUÉ,13430028,SITIO NUEVO,CP,9.0152821979999995,-74.607464405000002
13,BOLÍVAR,13430,MAGANGUÉ,13430029,PUERTO KENNEDY,CP,9.3440633080000008,-74.711805167999998
13,BOLÍVAR,13430,MAGANGUÉ,13430030,TACALOA,CP,9.4131659919999997,-74.75582842
13,BOLÍVAR,13430,MAGANGUÉ,13430031,TACASALUMA,CP,9.1060949390000001,-74.802015126000001
13,BOLÍVAR,13430,MAGANGUÉ,13430032,TOLÚ,CP,8.9717705300000006,-74.533848735000007
13,BOLÍVAR,13430,MAGANGUÉ,13430036,PLAYA DE LAS FLORES,CP,8.8773080059999998,-74.467706340000007
13,BOLÍVAR,13430,MAGANGUÉ,13430038,EL CUATRO,CP,9.3096938229999999,-74.873926980999997
13,BOLÍVAR,13430,MAGANGUÉ,13430039,BOCA DE GUAMAL,CP,8.9074120899999993,-74.480835459000005
13,BOLÍVAR,13430,MAGANGUÉ,13430040,TRES PUNTAS,CP,9.1898339320000009,-74.893073665000003
13,BOLÍVAR,13430,MAGANGUÉ,13430041,EMAUS,CP,9.2832313719999995,-74.910385336000004
13,BOLÍVAR,13430,MAGANGUÉ,13430047,PUERTO NARIÑO,CP,9.1991427889999997,-74.738028005999993
13,BOLÍVAR,13430,MAGANGUÉ,13430048,PUNTA DE CARTAGENA,CP,8.8866744830000002,-74.474858897000004
13,BOLÍVAR,13430,MAGANGUÉ,13430049,ROMA,CP,8.9382149309999992,-74.502330864000001
13,BOLÍVAR,13430,MAGANGUÉ,13430051,SAN ANTOÑITO,CP,9.1355050940000009,-74.833880207999997
13,BOLÍVAR,13430,MAGANGUÉ,13430052,SANTA COITA,CP,8.9490378840000009,-74.520364387000001
13,BOLÍVAR,13430,MAGANGUÉ,13430053,FLORENCIA,CP,9.3136687219999992,-74.891516081000006
13,BOLÍVAR,13433,MAHATES,13433000,MAHATES,CM,10.233242831,-75.191608721999998
13,BOLÍVAR,13433,MAHATES,13433001,EVITAR,CP,10.272177893,-75.159501302999999
13,BOLÍVAR,13433,MAHATES,13433002,GAMERO,CP,10.205683026000001,-75.211416900000003
13,BOLÍVAR,13433,MAHATES,13433003,MALAGANA,CP,10.140956408999999,-75.226047371000007
13,BOLÍVAR,13433,MAHATES,13433004,SAN BASILIO DE PALENQUE,CP,10.104563880000001,-75.199316573000004
13,BOLÍVAR,13433,MAHATES,13433005,SAN JOAQUÍN,CP,10.160843272999999,-75.108782856000005
13,BOLÍVAR,13433,MAHATES,13433009,MANDINGA,CP,10.141866056,-75.138220473000004
13,BOLÍVAR,13433,MAHATES,13433010,CRUZ DEL VIZO,CP,10.133853616,-75.242439790000006
13,BOLÍVAR,13433,MAHATES,13433011,LA MANGA,CP,10.132547950999999,-75.166263827999998
13,BOLÍVAR,13440,MARGARITA,13440000,MARGARITA,CM,9.1555504719999998,-74.280821756999998
13,BOLÍVAR,13440,MARGARITA,13440001,BOTÓN DE LEIVA,CP,9.1535301100000002,-74.253943934999995
13,BOLÍVAR,13440,MARGARITA,13440002,CANTERA,CP,9.0671363120000006,-74.165317424999998
13,BOLÍVAR,13440,MARGARITA,13440003,CAUSADO,CP,9.1313860469999995,-74.320377624000002
13,BOLÍVAR,13440,MARGARITA,13440004,CHILLOA,CP,9.1166093129999997,-74.219552831000001
13,BOLÍVAR,13440,MARGARITA,13440005,DOÑA JUANA,CP,9.0934130090000007,-74.194395843999999
13,BOLÍVAR,13440,MARGARITA,13440007,MAMONCITO,CP,9.0461040839999995,-74.264531872999996
13,BOLÍVAR,13440,MARGARITA,13440008,SANDOVAL,CP,9.1342780220000002,-74.245185472000003
13,BOLÍVAR,13440,MARGARITA,13440010,SAN JOSÉ DE LOS TRAPICHES,CP,9.1240460460000001,-74.234212726999999
13,BOLÍVAR,13440,MARGARITA,13440011,COROCITO,CP,9.066418165,-74.278492681000003
13,BOLÍVAR,13440,MARGARITA,13440012,GUATAQUITA,CP,9.0165004250000003,-74.216411605999994
13,BOLÍVAR,13440,MARGARITA,13440014,CAÑO MONO,CP,,
13,BOLÍVAR,13440,MARGARITA,13440017,LA MONTAÑA,CP,,
13,BOLÍVAR,13442,MARÍA LA BAJA,13442000,MARÍA LA BAJA,CM,9.9825536069999998,-75.300596820999999
13,BOLÍVAR,13442,MARÍA LA BAJA,13442001,CORREA,CP,10.042849982,-75.405174578
13,BOLÍVAR,13442,MARÍA LA BAJA,13442002,EL NÍSPERO,CP,9.935997403,-75.423179078999993
13,BOLÍVAR,13442,MARÍA LA BAJA,13442003,FLAMENCO,CP,9.9859268980000007,-75.396820348000006
13,BOLÍVAR,13442,MARÍA LA BAJA,13442004,MANPUJÁN,CP,9.9914967820000005,-75.236123629000005
13,BOLÍVAR,13442,MARÍA LA BAJA,13442005,ÑANGUMA,CP,10.008283115999999,-75.455391371000005
13,BOLÍVAR,13442,MARÍA LA BAJA,13442006,RETIRO NUEVO,CP,9.9174053339999997,-75.371627529999998
13,BOLÍVAR,13442,MARÍA LA BAJA,13442007,SAN JOSÉ DEL PLAYÓN,CP,9.8811728240000001,-75.329299548999998
13,BOLÍVAR,13442,MARÍA LA BAJA,13442008,SAN PABLO,CP,10.051627128,-75.268090978999993
13,BOLÍVAR,13442,MARÍA LA BAJA,13442009,EL MAJAGUA,CP,10.033647394000001,-75.262184661999996
13,BOLÍVAR,13442,MARÍA LA BAJA,13442011,LOS BELLOS,CP,9.9351602260000007,-75.385006364999995
13,BOLÍVAR,13442,MARÍA LA BAJA,13442012,MATUYA,CP,9.9419108569999999,-75.302974019000004
13,BOLÍVAR,13442,MARÍA LA BAJA,13442014,COLÚ,CP,9.9249192149999992,-75.345369826999999
13,BOLÍVAR,13442,MARÍA LA BAJA,13442015,EL FLORIDO,CP,9.9440978050000002,-75.348781399000003
13,BOLÍVAR,13442,MARÍA LA BAJA,13442016,NUEVO RETÉN,CP,9.9013080490000007,-75.353368568999997
13,BOLÍVAR,13442,MARÍA LA BAJA,13442017,ARROYO GRANDE,CP,9.8941944619999997,-75.355784295999996
13,BOLÍVAR,13442,MARÍA LA BAJA,13442019,NUEVA ESPERANZA,CP,9.9113981550000005,-75.350441055999994
13,BOLÍVAR,13442,MARÍA LA BAJA,13442020,PUEBLO NUEVO,CP,9.8795806840000004,-75.389132072999999
13,BOLÍVAR,13442,MARÍA LA BAJA,13442022,PRIMERO DE JULIO,CP,10.042207846,-75.261375792999999
13,BOLÍVAR,13442,MARÍA LA BAJA,13442023,EL SENA,CP,9.9826713409999996,-75.268731130999996
13,BOLÍVAR,13442,MARÍA LA BAJA,13442024,LA CURVA,CP,9.9636123960000003,-75.282262739999993
13,BOLÍVAR,13442,MARÍA LA BAJA,13442025,LA PISTA,CP,10.041094311,-75.264928881000003
13,BOLÍVAR,13442,MARÍA LA BAJA,13442026,MARQUEZ,CP,9.9696028590000001,-75.278408987000006
13,BOLÍVAR,13442,MARÍA LA BAJA,13442027,MUNGUIA,CP,10.007891499999999,-75.262717379999998
13,BOLÍVAR,13442,MARÍA LA BAJA,13442030,CEDRITO,CP,9.9342835110000003,-75.356345425000001
13,BOLÍVAR,13442,MARÍA LA BAJA,13442031,EL GUAMO,CP,9.8859839029999996,-75.349263832999995
13,BOLÍVAR,13442,MARÍA LA BAJA,13442034,GUARISMO,CP,9.9650163379999999,-75.361606551999998
13,BOLÍVAR,13442,MARÍA LA BAJA,13442035,LA SUPREMA,CP,9.9298837449999997,-75.308374744999995
13,BOLÍVAR,13442,MARÍA LA BAJA,13442040,NUEVO PORVENIR,CP,9.9056291699999992,-75.370317221999997
13,BOLÍVAR,13442,MARÍA LA BAJA,13442043,SUCESIÓN,CP,9.8980270089999998,-75.337210807999995
13,BOLÍVAR,13442,MARÍA LA BAJA,13442044,TOMA RAZÓN,CP,9.9181529430000008,-75.331585344000004
13,BOLÍVAR,13442,MARÍA LA BAJA,13442045,EL PUEBLITO,CP,9.9315611990000008,-75.297506007999999
13,BOLÍVAR,13458,MONTECRISTO,13458000,MONTECRISTO,CM,8.2993727410000009,-74.468563601
13,BOLÍVAR,13458,MONTECRISTO,13458001,BETANIA,CP,8.3675148319999995,-74.484927294000002
13,BOLÍVAR,13458,MONTECRISTO,13458002,LA DORADA,CP,8.3451330039999991,-74.477860547999995
13,BOLÍVAR,13458,MONTECRISTO,13458003,PARAÍSO,CP,,
13,BOLÍVAR,13458,MONTECRISTO,13458004,PUEBLO LINDO,CP,8.2530455909999993,-74.496385726
13,BOLÍVAR,13458,MONTECRISTO,13458005,PUEBLO NUEVO - REGENCIA,CP,8.0978655790000005,-74.629570952999998
